{
  "version": 1,
  "updated": "2026-03-20",
  "venues": [
    {
      "name": "Bar Raval",
      "hood": "Kensington",
      "type": "drinkhh",
      "days": [
        "mon",
        "tue",
        "wed",
        "thu",
        "fri"
      ],
      "start": 15,
      "end": 18,
      "detail": "\ud83c\udf78 $6 pintxos, $7 vermouth & natural wine, $5 beer. Best Spanish bar in the city.",
      "addr": "505 College St",
      "lat": 43.6545,
      "lng": -79.4198
    },
    {
      "name": "BarChef",
      "hood": "Queen West",
      "type": "drinkhh",
      "days": [
        "mon",
        "tue",
        "wed",
        "thu"
      ],
      "start": 17,
      "end": 19,
      "detail": "\ud83c\udf78 $10 cocktails (reg $18\u201322), $7 wine, $6 beer. Award-winning cocktail bar.",
      "addr": "472 Queen St W",
      "lat": 43.6484,
      "lng": -79.4153
    },
    {
      "name": "Canoe",
      "hood": "Financial",
      "type": "drinkhh",
      "days": [
        "mon",
        "tue",
        "wed",
        "thu",
        "fri"
      ],
      "start": 16,
      "end": 18,
      "detail": "\ud83c\udf78 $10 wine & beer, $12 cocktails. 54th floor views over Toronto.",
      "addr": "66 Wellington St W",
      "lat": 43.6474,
      "lng": -79.3816
    },
    {
      "name": "Reposado",
      "hood": "Ossington",
      "type": "drinkhh",
      "days": [
        "mon",
        "tue",
        "wed",
        "thu",
        "fri"
      ],
      "start": 17,
      "end": 19,
      "detail": "\ud83c\udf78 $8 margaritas, $6 Mexican beer, 2-for-1 shots. Best tequila bar in Toronto.",
      "addr": "136 Ossington Ave",
      "lat": 43.6521,
      "lng": -79.4264
    },
    {
      "name": "Bar Koukla",
      "hood": "Ossington",
      "type": "drinkhh",
      "days": [
        "mon",
        "tue",
        "wed",
        "thu",
        "fri",
        "sat",
        "sun"
      ],
      "start": 17,
      "end": 19,
      "detail": "\ud83c\udf78 Half-price wine bottles nightly. $10 classic martinis after 9pm.",
      "addr": "88 Ossington Ave",
      "lat": 43.6461,
      "lng": -79.4198
    },
    {
      "name": "Coffee Oysters Champagne",
      "hood": "Entertainment",
      "type": "drinkhh",
      "days": [
        "tue",
        "wed",
        "thu",
        "fri",
        "sat"
      ],
      "start": 17,
      "end": 23,
      "detail": "\ud83c\udf78 $5 espresso martinis AND classic martinis all night Tue\u2013Sat. Speakeasy vibes.",
      "addr": "214 King St W",
      "lat": 43.6468,
      "lng": -79.3872
    },
    {
      "name": "Superpoint",
      "hood": "Ossington",
      "type": "drinkhh",
      "days": [
        "mon",
        "tue",
        "wed",
        "thu",
        "fri",
        "sat",
        "sun"
      ],
      "start": 15,
      "end": 18,
      "detail": "\ud83c\udf78 $5 Peroni, $6 natural wine, $7 spritz. Every day all week.",
      "addr": "184 Ossington Ave",
      "lat": 43.6497,
      "lng": -79.4228
    },
    {
      "name": "Bellwoods Brewery",
      "hood": "Queen West",
      "type": "drinkhh",
      "days": [
        "mon",
        "tue",
        "wed",
        "thu"
      ],
      "start": 15,
      "end": 18,
      "detail": "\ud83c\udf78 $6 pints on select house beers Mon\u2013Thu.",
      "addr": "124 Ossington Ave",
      "lat": 43.6488,
      "lng": -79.4218
    },
    {
      "name": "Birreria Volo",
      "hood": "Kensington",
      "type": "drinkhh",
      "days": [
        "mon",
        "tue",
        "wed",
        "thu",
        "fri"
      ],
      "start": 16,
      "end": 18,
      "detail": "\ud83c\udf78 $6.50 house draft Tuesdays. Half-price wine Wednesdays. Craft beer cave.",
      "addr": "612 College St",
      "lat": 43.6554,
      "lng": -79.4145
    },
    {
      "name": "Bar Volo",
      "hood": "Yorkville",
      "type": "drinkhh",
      "days": [
        "mon",
        "tue",
        "wed",
        "thu",
        "fri"
      ],
      "start": 16,
      "end": 18,
      "detail": "\ud83c\udf78 $13 Italian spritzes. $6.50 house beers Tue. Half-price wine Wed. Bay-Cloverhill's best beer bar.",
      "addr": "17 St Nicholas St",
      "lat": 43.6672,
      "lng": -79.3862
    },
    {
      "name": "Archive Bar",
      "hood": "Trinity Bellwoods",
      "type": "drinkhh",
      "days": [
        "mon",
        "tue",
        "wed",
        "thu",
        "fri"
      ],
      "start": 16,
      "end": 18,
      "detail": "\ud83c\udf78 $7 wine & craft beer, $10 cocktails.",
      "addr": "909 Dundas St W",
      "lat": 43.6509,
      "lng": -79.4123
    },
    {
      "name": "Ace Hotel Bar",
      "hood": "Fashion District",
      "type": "drinkhh",
      "days": [
        "mon",
        "tue",
        "wed",
        "thu",
        "fri"
      ],
      "start": 16,
      "end": 19,
      "detail": "\ud83c\udf78 $12 wine by the glass, select cocktails weekdays 4\u20137pm. Sexy hotel bar.",
      "addr": "51 Camden St",
      "lat": 43.6459,
      "lng": -79.3997
    },
    {
      "name": "Bar Isabel",
      "hood": "Kensington",
      "type": "drinkhh",
      "days": [
        "tue",
        "wed",
        "thu",
        "fri",
        "sat"
      ],
      "start": 15,
      "end": 17,
      "detail": "\ud83c\udf78 $10 wine glasses, $6 lagers, $12 Dillon's cocktails. Closest thing to Spain in Toronto.",
      "addr": "797 College St",
      "lat": 43.6558,
      "lng": -79.4198
    },
    {
      "name": "King Taps",
      "hood": "Financial",
      "type": "drinkhh",
      "days": [
        "mon",
        "tue",
        "wed",
        "thu",
        "fri",
        "sat",
        "sun"
      ],
      "start": 15,
      "end": 18,
      "detail": "\ud83c\udf78 50% off wine Tue & Wed, $5 beers, $6 wines. Late night Sun\u2013Wed too.",
      "addr": "100 King St W",
      "lat": 43.6484,
      "lng": -79.3819
    },
    {
      "name": "Bar Hop",
      "hood": "Financial",
      "type": "drinkhh",
      "days": [
        "mon",
        "tue",
        "wed",
        "thu",
        "fri"
      ],
      "start": 15,
      "end": 18,
      "detail": "\ud83c\udf78 Craft beer HH on rotating taps. Multiple taprooms downtown.",
      "addr": "391 King St W",
      "lat": 43.6465,
      "lng": -79.3955
    },
    {
      "name": "Richmond Station",
      "hood": "Financial",
      "type": "drinkhh",
      "days": [
        "mon",
        "tue",
        "wed",
        "thu",
        "fri"
      ],
      "start": 16,
      "end": 18,
      "detail": "\ud83c\udf78 $7 draft, $9 wine, $12 cocktails Mon\u2013Fri.",
      "addr": "1 Richmond St W",
      "lat": 43.6512,
      "lng": -79.3795
    },
    {
      "name": "The Pilot Tavern",
      "hood": "Yorkville",
      "type": "drinkhh",
      "days": [
        "mon",
        "tue",
        "wed",
        "thu",
        "fri"
      ],
      "start": 16,
      "end": 18,
      "detail": "\ud83c\udf78 Craft brewery deals before Tuesday trivia. No cover for trivia.",
      "addr": "22 Cumberland St",
      "lat": 43.6693,
      "lng": -79.3924
    },
    {
      "name": "Boxcar Social",
      "hood": "Summerhill",
      "type": "drinkhh",
      "days": [
        "tue",
        "wed",
        "thu",
        "fri",
        "sat"
      ],
      "start": 16,
      "end": 19,
      "detail": "\ud83c\udf78 $5 shots & beers, $7 spritz & wine. Victorian two-storey bar with back patio.",
      "addr": "1208 Yonge St",
      "lat": 43.6847,
      "lng": -79.3924
    },
    {
      "name": "Lapinou",
      "hood": "King West",
      "type": "drinkhh",
      "days": [
        "tue",
        "wed",
        "thu",
        "fri",
        "sat"
      ],
      "start": 17,
      "end": 19,
      "detail": "\ud83c\udf78 $10 cocktails + Tue & Wed 50% off wine bottles. Cozy French bistro bar.",
      "addr": "642 King St W",
      "lat": 43.6441,
      "lng": -79.413
    },
    {
      "name": "A\u00f1ejo",
      "hood": "King West",
      "type": "drinkhh",
      "days": [
        "mon",
        "tue",
        "wed",
        "thu",
        "fri",
        "sat",
        "sun"
      ],
      "start": 15,
      "end": 17,
      "detail": "\ud83c\udf78 $7 margaritas & beers. Also 10pm\u2013midnight daily. Canada's best tequila bar.",
      "addr": "600 King St W",
      "lat": 43.6446,
      "lng": -79.4
    },
    {
      "name": "The Rabbit Hole",
      "hood": "Financial",
      "type": "drinkhh",
      "days": [
        "mon",
        "tue",
        "wed",
        "thu",
        "fri",
        "sat"
      ],
      "start": 15,
      "end": 18,
      "detail": "\ud83c\udf78 $7 beers, $12 cocktails, $10 wine. British gastropub with great patio.",
      "addr": "21 Adelaide St W",
      "lat": 43.651,
      "lng": -79.382
    },
    {
      "name": "Melrose on Adelaide",
      "hood": "Entertainment",
      "type": "drinkhh",
      "days": [
        "mon",
        "tue",
        "wed",
        "thu",
        "fri",
        "sat",
        "sun"
      ],
      "start": 14,
      "end": 18,
      "detail": "\ud83c\udf78 Half-price bottles of wine 2\u20136pm daily. Late night Sun\u2013Wed too.",
      "addr": "270 Adelaide St W",
      "lat": 43.6491,
      "lng": -79.388
    },
    {
      "name": "Cocktail Bar",
      "hood": "Trinity Bellwoods",
      "type": "drinkhh",
      "days": [
        "mon",
        "tue",
        "wed",
        "thu",
        "fri",
        "sat",
        "sun"
      ],
      "start": 17,
      "end": 19,
      "detail": "\ud83c\udf78 Daily $12 menu drinks 5\u20137pm. Perfect back patio.",
      "addr": "923 Dundas St W",
      "lat": 43.6516,
      "lng": -79.4209
    },
    {
      "name": "The Comrade",
      "hood": "Riverside",
      "type": "drinkhh",
      "days": [
        "mon",
        "tue",
        "wed",
        "thu",
        "fri",
        "sat",
        "sun"
      ],
      "start": 17,
      "end": 19,
      "detail": "\ud83c\udf78 $12 select cocktails every day 5\u20137pm. Dark, sexy taxidermy bar.",
      "addr": "758 Queen St E",
      "lat": 43.6594,
      "lng": -79.3459
    },
    {
      "name": "Chez Nous",
      "hood": "Riverside",
      "type": "drinkhh",
      "days": [
        "mon",
        "tue",
        "wed",
        "thu",
        "fri",
        "sat",
        "sun"
      ],
      "start": 17,
      "end": 19,
      "detail": "\ud83c\udf78 $9 house wines, $6 select beers, $12 cocktails 5\u20137pm. Half-price bottles after 11pm & all day Sun.",
      "addr": "798 Queen St E",
      "lat": 43.6597,
      "lng": -79.3469
    },
    {
      "name": "Paradise Grapevine",
      "hood": "Geary",
      "type": "drinkhh",
      "days": [
        "mon",
        "tue",
        "wed",
        "thu",
        "fri",
        "sat",
        "sun"
      ],
      "start": 17,
      "end": 18,
      "detail": "\ud83c\udf78 $10 glasses of house-label wine 5\u20136pm daily. Natural wine bar & urban winery.",
      "addr": "218 Geary Ave",
      "lat": 43.6744,
      "lng": -79.4298
    },
    {
      "name": "Le Tigre",
      "hood": "Rosedale",
      "type": "drinkhh",
      "days": [
        "mon",
        "tue",
        "wed",
        "thu",
        "fri",
        "sat",
        "sun"
      ],
      "start": 17,
      "end": 19,
      "detail": "\ud83c\udf78 Half-price martinis all night Monday + Tue\u2013Sun 5\u20137pm. If Barbie had a neon-pink cocktail bar.",
      "addr": "1060 Yonge St",
      "lat": 43.6796,
      "lng": -79.3876
    },
    {
      "name": "Gloria",
      "hood": "Queen West",
      "type": "drinkhh",
      "days": [
        "mon",
        "tue",
        "wed",
        "thu",
        "fri",
        "sat",
        "sun"
      ],
      "start": 17,
      "end": 19,
      "detail": "\ud83c\udf78 $10 martinis 5\u20137pm daily. Casual French-American bistro in the Great Hall.",
      "addr": "1087 Queen St W",
      "lat": 43.6449,
      "lng": -79.4345
    },
    {
      "name": "Compton Ave.",
      "hood": "Little Portugal",
      "type": "drinkhh",
      "days": [
        "mon",
        "tue",
        "wed",
        "thu",
        "fri",
        "sat",
        "sun"
      ],
      "start": 18,
      "end": 20,
      "detail": "\ud83c\udf78 Daily $12 martinis 6\u20138pm. Moody cocktail bar, looks like a wealthy Londoner's home.",
      "addr": "1282 Dundas St W",
      "lat": 43.6531,
      "lng": -79.434
    },
    {
      "name": "Hey Lucy",
      "hood": "King West",
      "type": "drinkhh",
      "days": [
        "wed"
      ],
      "start": 17,
      "end": 22,
      "detail": "\ud83c\udf78 $6.99 select martinis every Wednesday. Wood-fired pizza bar.",
      "addr": "295 King St W",
      "lat": 43.6472,
      "lng": -79.3939
    },
    {
      "name": "Maison Selby",
      "hood": "Yorkville",
      "type": "drinkhh",
      "days": [
        "mon",
        "tue",
        "wed",
        "thu",
        "fri",
        "sat",
        "sun"
      ],
      "start": 14,
      "end": 18,
      "detail": "\ud83c\udf78 $7 beer, $12 cocktails 2\u20136pm + 9pm\u2013close daily.",
      "addr": "592 Sherbourne St",
      "lat": 43.6736,
      "lng": -79.3769
    },
    {
      "name": "General Public",
      "hood": "Geary",
      "type": "drinkhh",
      "days": [
        "mon",
        "tue",
        "wed",
        "thu",
        "fri",
        "sat",
        "sun"
      ],
      "start": 16,
      "end": 18,
      "detail": "\ud83c\udf78 Cocktails, beer & wine from $8 daily 4\u20136pm. Also the only time to get their legendary limited cheeseburger.",
      "addr": "201 Geary Ave",
      "lat": 43.6742,
      "lng": -79.4292
    },
    {
      "name": "Lulu Bar",
      "hood": "King West",
      "type": "drinkhh",
      "days": [
        "mon",
        "tue",
        "wed",
        "thu",
        "fri",
        "sat",
        "sun"
      ],
      "start": 15,
      "end": 18,
      "detail": "\ud83c\udf78 $10 tropical cocktails, $7 draught, half-price wine during Honolulu Hour 3\u20136pm daily.",
      "addr": "427 Wellington St W",
      "lat": 43.6455,
      "lng": -79.4
    },
    {
      "name": "Bridgette Bar",
      "hood": "King West",
      "type": "drinkhh",
      "days": [
        "mon",
        "tue",
        "wed",
        "thu",
        "fri",
        "sat",
        "sun"
      ],
      "start": 14,
      "end": 17,
      "detail": "\ud83c\udf78 50% off wine, $10 cocktails 2\u20135pm daily.",
      "addr": "423 Wellington St W",
      "lat": 43.6456,
      "lng": -79.3998
    },
    {
      "name": "Pigeon",
      "hood": "King West",
      "type": "drinkhh",
      "days": [
        "mon",
        "tue",
        "wed",
        "thu",
        "fri",
        "sat",
        "sun"
      ],
      "start": 15.5,
      "end": 19,
      "detail": "\ud83c\udf78 $4.50 shots, $8 wine, $10 cocktails 3:30\u20137pm.",
      "addr": "337 King St W",
      "lat": 43.6472,
      "lng": -79.3946
    },
    {
      "name": "Ruby Soho",
      "hood": "King West",
      "type": "drinkhh",
      "days": [
        "mon",
        "tue",
        "wed",
        "thu",
        "fri",
        "sat",
        "sun"
      ],
      "start": 15,
      "end": 19,
      "detail": "\ud83c\udf78 Beer, cocktails & specials 3\u20137pm daily. Vinyl bar, TIFF celeb hotspot.",
      "addr": "587 King St W",
      "lat": 43.6449,
      "lng": -79.4088
    },
    {
      "name": "Caf\u00e9 Ren\u00e9e",
      "hood": "King West",
      "type": "drinkhh",
      "days": [
        "mon",
        "tue",
        "wed",
        "thu",
        "fri",
        "sat",
        "sun"
      ],
      "start": 17,
      "end": 19,
      "detail": "\ud83c\udf78 $12 martinis 5\u20137pm daily.",
      "addr": "100 Portland St",
      "lat": 43.6457,
      "lng": -79.4008
    },
    {
      "name": "Locals Only",
      "hood": "King West",
      "type": "drinkhh",
      "days": [
        "mon",
        "tue",
        "wed",
        "thu",
        "fri",
        "sat",
        "sun"
      ],
      "start": 17,
      "end": 19,
      "detail": "\ud83c\udf78 50% off wine & oysters 5\u20137pm.",
      "addr": "589 King St W",
      "lat": 43.6448,
      "lng": -79.4079
    },
    {
      "name": "Burdock Brewery",
      "hood": "Bloordale",
      "type": "drinkhh",
      "days": [
        "mon",
        "tue",
        "wed",
        "thu",
        "fri"
      ],
      "start": 17,
      "end": 18,
      "detail": "\ud83c\udf78 $5 draft beer weekdays 5\u20136pm. Half-price wine Sundays. Half-price cellar Tuesdays.",
      "addr": "1184 Bloor St W",
      "lat": 43.6627,
      "lng": -79.4384
    },
    {
      "name": "The Wedge",
      "hood": "Bloor West",
      "type": "drinkhh",
      "days": [
        "mon",
        "tue",
        "wed",
        "thu",
        "fri"
      ],
      "start": 16,
      "end": 19,
      "detail": "\ud83c\udf78 $5 beers, $9 cocktails + food 4\u20137pm. Neighbourhood gem in the Junction.",
      "addr": "1627 Dupont St",
      "lat": 43.671,
      "lng": -79.46
    },
    {
      "name": "Indie Ale House",
      "hood": "Bloor West",
      "type": "drinkhh",
      "days": [
        "tue",
        "wed",
        "thu",
        "fri"
      ],
      "start": 15,
      "end": 18,
      "detail": "\ud83c\udf78 $7 beers Tue\u2013Fri 3\u20136pm. Junction's beloved craft brewery.",
      "addr": "2876 Dundas St W",
      "lat": 43.6637,
      "lng": -79.4766
    },
    {
      "name": "The Draft Room",
      "hood": "Bloor West",
      "type": "drinkhh",
      "days": [
        "mon",
        "tue",
        "wed",
        "thu",
        "fri"
      ],
      "start": 16,
      "end": 18,
      "detail": "\ud83c\udf78 25% off cocktails, $6 beer 4\u20136pm Mon\u2013Fri.",
      "addr": "395 Keele St",
      "lat": 43.6632,
      "lng": -79.454
    },
    {
      "name": "Brazen Head",
      "hood": "Liberty Village",
      "type": "drinkhh",
      "days": [
        "mon",
        "tue",
        "wed",
        "thu",
        "fri",
        "sat",
        "sun"
      ],
      "start": 15,
      "end": 18,
      "detail": "\ud83c\udf78 Irish pub pint specials all day. $9 wine, $10 off wine bottles.",
      "addr": "165 East Liberty St",
      "lat": 43.6378,
      "lng": -79.4167
    },
    {
      "name": "Liberal Commons",
      "hood": "Liberty Village",
      "type": "drinkhh",
      "days": [
        "mon",
        "tue",
        "wed",
        "thu",
        "fri"
      ],
      "start": 16,
      "end": 18,
      "detail": "\ud83c\udf78 $5 domestic draft, $7 wine Mon\u2013Fri 4\u20136pm.",
      "addr": "42 Liberty St",
      "lat": 43.6389,
      "lng": -79.4183
    },
    {
      "name": "Danforth Sidebar",
      "hood": "Riverdale",
      "type": "drinkhh",
      "days": [
        "mon",
        "tue",
        "wed",
        "thu",
        "fri",
        "sat",
        "sun"
      ],
      "start": 17,
      "end": 18,
      "detail": "\ud83c\udf78 $6 drinks on show nights 5\u20136pm. Oyster deals Wednesdays.",
      "addr": "161 Danforth Ave",
      "lat": 43.6772,
      "lng": -79.3533
    },
    {
      "name": "Ballyhoo Riverdale",
      "hood": "Danforth",
      "type": "drinkhh",
      "days": [
        "mon",
        "tue",
        "wed"
      ],
      "start": 16,
      "end": 17,
      "detail": "\ud83c\udf78 $0.99 wings, $5 lager, $9 cocktails Mon\u2013Wed 4\u20135pm. Thu\u2013Fri 3\u20135pm.",
      "addr": "526 Danforth Ave",
      "lat": 43.6772,
      "lng": -79.352
    },
    {
      "name": "The Fortunate Fox",
      "hood": "Annex",
      "type": "drinkhh",
      "days": [
        "mon",
        "tue",
        "wed",
        "thu",
        "fri",
        "sat",
        "sun"
      ],
      "start": 22,
      "end": 26,
      "detail": "\ud83c\udf78 Food & drinks from $6 after 10pm nightly.",
      "addr": "280 Bloor St W",
      "lat": 43.667,
      "lng": -79.401
    },
    {
      "name": "Left Field Brewery",
      "hood": "Leslieville",
      "type": "drinkhh",
      "days": [
        "wed",
        "thu",
        "fri"
      ],
      "start": 16,
      "end": 18,
      "detail": "\ud83c\udf78 Taproom HH on house beers Wed\u2013Fri 4\u20136pm. Brass Facts trivia Wednesdays.",
      "addr": "36 Wagstaff Dr",
      "lat": 43.6632,
      "lng": -79.3264
    },
    {
      "name": "Avling",
      "hood": "Leslieville",
      "type": "drinkhh",
      "days": [
        "tue",
        "wed",
        "thu",
        "fri"
      ],
      "start": 17,
      "end": 19,
      "detail": "\ud83c\udf78 $6 house lager, $8 natural wine Tue\u2013Fri 5\u20137pm. Farm-to-table craft beer.",
      "addr": "1042 Queen St E",
      "lat": 43.6593,
      "lng": -79.3372
    },
    {
      "name": "Bar Niro",
      "hood": "Ossington",
      "type": "drinkhh",
      "days": [
        "mon",
        "tue",
        "wed",
        "thu",
        "fri",
        "sat",
        "sun"
      ],
      "start": 17,
      "end": 19,
      "detail": "\ud83c\udf78 $15 martinis daily aperitivo hour. Saxophones on Fridays. Roman jazz postcard vibes.",
      "addr": "1334 Dundas St W",
      "lat": 43.6531,
      "lng": -79.4347
    },
    {
      "name": "Grossman's Tavern",
      "hood": "Chinatown",
      "type": "drinkhh",
      "days": [
        "mon",
        "tue",
        "wed",
        "thu",
        "fri",
        "sat",
        "sun"
      ],
      "start": 17,
      "end": 20,
      "detail": "\ud83c\udf78 Drink specials nightly with live blues & jazz. No cover ever. Chinatown since 1943.",
      "addr": "379 Spadina Ave",
      "lat": 43.6556,
      "lng": -79.3993
    },
    {
      "name": "Dina's Tavern",
      "hood": "Kensington",
      "type": "drinkhh",
      "days": [
        "mon",
        "tue",
        "wed",
        "thu",
        "fri",
        "sat",
        "sun"
      ],
      "start": 17,
      "end": 19,
      "detail": "\ud83c\udf78 $6 beer, $9 wine. Monday jazz nights. Built on the Silver Dollar Room.",
      "addr": "486 Spadina Ave",
      "lat": 43.6551,
      "lng": -79.401
    },
    {
      "name": "Cactus Club",
      "hood": "Financial",
      "type": "drinkhh",
      "days": [
        "mon",
        "tue",
        "wed",
        "thu",
        "fri",
        "sat",
        "sun"
      ],
      "start": 14,
      "end": 17,
      "detail": "\ud83c\udf78 $5\u2013$8.25 beers, $8.25\u2013$14.25 cocktails 2\u20135pm & 9pm\u2013close. All day Sunday.",
      "addr": "77 Adelaide St W",
      "lat": 43.6494,
      "lng": -79.3835
    },
    {
      "name": "Earl's",
      "hood": "Yorkville",
      "type": "drinkhh",
      "days": [
        "mon",
        "tue",
        "wed",
        "thu",
        "fri",
        "sat",
        "sun"
      ],
      "start": 15,
      "end": 18,
      "detail": "\ud83c\udf78 Half-price drinks 3\u20136pm & 10pm\u2013close every day.",
      "addr": "55 Bloor St W",
      "lat": 43.671,
      "lng": -79.3892
    },
    {
      "name": "Joey Restaurant",
      "hood": "Downtown",
      "type": "drinkhh",
      "days": [
        "mon",
        "tue",
        "wed",
        "thu",
        "fri",
        "sat",
        "sun"
      ],
      "start": 15,
      "end": 18,
      "detail": "\ud83c\udf78 Drinks from $5. Daily 3\u20136pm + Sun\u2013Thu 9pm\u2013close, Fri\u2013Sat 10pm\u2013close.",
      "addr": "1 Dundas St W",
      "lat": 43.6561,
      "lng": -79.3819
    },
    {
      "name": "The Keg Esplanade",
      "hood": "Financial",
      "type": "drinkhh",
      "days": [
        "mon",
        "tue",
        "wed",
        "thu",
        "fri",
        "sat",
        "sun"
      ],
      "start": 16,
      "end": 18,
      "detail": "\ud83c\udf78 Cocktails & food from $7, 4\u20136pm & 10pm\u2013close daily.",
      "addr": "1 King St E",
      "lat": 43.649,
      "lng": -79.374
    },
    {
      "name": "Shameful Tiki Room",
      "hood": "Queen West",
      "type": "drinkhh",
      "days": [
        "mon",
        "tue",
        "wed",
        "thu",
        "fri",
        "sat",
        "sun"
      ],
      "start": 17,
      "end": 19,
      "detail": "\ud83c\udf78 $13 best-selling cocktails, $5 shots, $6 Miller High Life 5\u20137pm daily. Retro tropical kitsch.",
      "addr": "777 Queen St W",
      "lat": 43.6479,
      "lng": -79.4247
    },
    {
      "name": "Big Trouble",
      "hood": "Chinatown",
      "type": "foodhh",
      "days": [
        "wed",
        "thu",
        "fri",
        "sat",
        "sun"
      ],
      "start": 17,
      "end": 19,
      "detail": "\ud83c\udf54 $5 snacks, $8 dumplings, $6 house lager, $10 cocktails (NO TAX!) Wed\u2013Sun 5:30\u20137:30pm.",
      "addr": "270 Spadina Ave",
      "lat": 43.6538,
      "lng": -79.3967
    },
    {
      "name": "Chantecler",
      "hood": "Bloordale",
      "type": "foodhh",
      "days": [
        "mon",
        "wed",
        "thu",
        "fri",
        "sat",
        "sun"
      ],
      "start": 17,
      "end": 18,
      "detail": "\ud83c\udf54 $2 oysters, $10 snacks, $10 cocktails 5\u20136pm daily (closed Tue). Half-price wine bottles Monday.",
      "addr": "1320 Queen St W",
      "lat": 43.6429,
      "lng": -79.4343
    },
    {
      "name": "Good Company",
      "hood": "Queen West",
      "type": "foodhh",
      "days": [
        "tue",
        "wed",
        "thu",
        "fri",
        "sat",
        "sun"
      ],
      "start": 15,
      "end": 18,
      "detail": "\ud83c\udf54 $1/oz house wine, half-price oysters & wine list, discounted snacks Tue\u2013Sun 3\u20136pm. Caf\u00e9-barbershop-snackbar.",
      "addr": "1184 Queen St W",
      "lat": 43.6434,
      "lng": -79.4384
    },
    {
      "name": "Pearl Diver",
      "hood": "Financial",
      "type": "foodhh",
      "days": [
        "mon",
        "tue",
        "wed",
        "thu",
        "fri",
        "sat",
        "sun"
      ],
      "start": 16.5,
      "end": 18.5,
      "detail": "\ud83c\udf54 $2 oysters by the dozen daily 4:30\u20136:30pm. 100 oysters for $100 on Thursdays (res required).",
      "addr": "89 Front St E",
      "lat": 43.6489,
      "lng": -79.3727
    },
    {
      "name": "Watson's",
      "hood": "Financial",
      "type": "foodhh",
      "days": [
        "sun",
        "mon"
      ],
      "start": 17,
      "end": 22,
      "detail": "\ud83c\udf54 Buck-a-shuck oysters + half-price wine Sunday & Monday. Cocktail bar.",
      "addr": "9 Church St",
      "lat": 43.6491,
      "lng": -79.3748
    },
    {
      "name": "\u0113st",
      "hood": "Riverside",
      "type": "foodhh",
      "days": [
        "tue",
        "thu"
      ],
      "start": 17,
      "end": 22,
      "detail": "\ud83c\udf54 Buck-a-Shuck + 25% off sparkling wine Tuesdays & Thursdays. Modern French dining.",
      "addr": "1168 Queen St E",
      "lat": 43.6589,
      "lng": -79.3351
    },
    {
      "name": "Island Oysters",
      "hood": "Bloordale",
      "type": "foodhh",
      "days": [
        "wed",
        "thu"
      ],
      "start": 17,
      "end": 21,
      "detail": "\ud83c\udf54 $2 rotating oysters all night Wednesday. $1.50 Malpeques Thu 5\u20137pm. Slice of the Maritimes.",
      "addr": "1371 Bloor St W",
      "lat": 43.6632,
      "lng": -79.4463
    },
    {
      "name": "Nuna Kitchen",
      "hood": "Queen West",
      "type": "foodhh",
      "days": [
        "wed"
      ],
      "start": 17,
      "end": 22,
      "detail": "\ud83c\udf54 Buck-a-Shuck oysters all Wednesday evening ($1\u2013$2 while supplies last). HH drinks Tue\u2013Sat 5\u20137pm.",
      "addr": "883 Queen St W",
      "lat": 43.6479,
      "lng": -79.4255
    },
    {
      "name": "Gusto 101",
      "hood": "King West",
      "type": "foodhh",
      "days": [
        "mon",
        "tue",
        "wed",
        "thu"
      ],
      "start": 15,
      "end": 17,
      "detail": "\ud83c\udf54 $1/oz house wine always available. $7+ food deals Mon\u2013Thu 3\u20135pm. Invented dollar-an-ounce wine.",
      "addr": "101 Portland St",
      "lat": 43.6457,
      "lng": -79.4007
    },
    {
      "name": "Gusto 501",
      "hood": "Corktown",
      "type": "foodhh",
      "days": [
        "mon",
        "tue",
        "wed",
        "thu",
        "fri"
      ],
      "start": 17,
      "end": 18,
      "detail": "\ud83c\udf54 $6 Moretti, $10 red wine, $12 negronis. Focaccia $5, burger $16, pizza $14. Mon\u2013Wed 5\u20136pm, Thu\u2013Fri 3\u20135pm.",
      "addr": "501 King St E",
      "lat": 43.6514,
      "lng": -79.363
    },
    {
      "name": "Lulu Bar (Food)",
      "hood": "King West",
      "type": "foodhh",
      "days": [
        "mon",
        "tue",
        "wed",
        "thu",
        "fri",
        "sat",
        "sun"
      ],
      "start": 15,
      "end": 18,
      "detail": "\ud83c\udf54 $8 salt-and-pepper pork belly bites, $6 hot dog bao, half-price wine. Honolulu Hour 3\u20136pm.",
      "addr": "427 Wellington St W",
      "lat": 43.6455,
      "lng": -79.4
    },
    {
      "name": "Chubby's Jamaican",
      "hood": "King West",
      "type": "foodhh",
      "days": [
        "mon",
        "tue",
        "wed",
        "thu",
        "fri"
      ],
      "start": 15,
      "end": 18,
      "detail": "\ud83c\udf54 $6 baked jerk wings, $6 fried plantains, rum punch from $12. Island Time HH 3\u20136pm.",
      "addr": "104 Portland St",
      "lat": 43.6455,
      "lng": -79.4013
    },
    {
      "name": "Petty Cash",
      "hood": "King West",
      "type": "foodhh",
      "days": [
        "mon",
        "tue",
        "wed",
        "thu",
        "fri"
      ],
      "start": 17,
      "end": 19,
      "detail": "\ud83c\udf54 Half-price pizza + $7 bar rail all week. King West pizza bar.",
      "addr": "487 Adelaide St W",
      "lat": 43.6461,
      "lng": -79.4025
    },
    {
      "name": "El Catrin",
      "hood": "Distillery",
      "type": "foodhh",
      "days": [
        "mon",
        "tue",
        "wed",
        "thu",
        "fri"
      ],
      "start": 15,
      "end": 18,
      "detail": "\ud83c\udf54 $7 margaritas, $6 Modelo, half-price guac & queso, $5 tacos 3\u20136pm.",
      "addr": "18 Tank House Ln",
      "lat": 43.6503,
      "lng": -79.3591
    },
    {
      "name": "A\u00f1ejo (Food)",
      "hood": "King West",
      "type": "foodhh",
      "days": [
        "mon",
        "tue",
        "wed",
        "thu",
        "fri",
        "sat",
        "sun"
      ],
      "start": 15,
      "end": 17,
      "detail": "\ud83c\udf54 $4 classic tacos + $7 margaritas 3\u20135pm & 10pm\u2013midnight. Best deal in the city.",
      "addr": "600 King St W",
      "lat": 43.6446,
      "lng": -79.4
    },
    {
      "name": "Baro",
      "hood": "King West",
      "type": "foodhh",
      "days": [
        "mon",
        "tue",
        "wed",
        "thu",
        "fri"
      ],
      "start": 16,
      "end": 18,
      "detail": "\ud83c\udf54 Half-price tacos, $8 cocktails, $6 beer & wine 4\u20136pm. Rooftop patio in season.",
      "addr": "485 King St W",
      "lat": 43.645,
      "lng": -79.4022
    },
    {
      "name": "Craft Beer Market",
      "hood": "Financial",
      "type": "foodhh",
      "days": [
        "mon",
        "tue",
        "wed",
        "thu",
        "fri",
        "sat",
        "sun"
      ],
      "start": 15,
      "end": 18,
      "detail": "\ud83c\udf54 HH eats from $5. Beer salt fries $5, Cabo fish taco $6, pizza $16. 3\u20136pm daily.",
      "addr": "1 Adelaide St E",
      "lat": 43.6493,
      "lng": -79.3766
    },
    {
      "name": "Fox on John",
      "hood": "Entertainment",
      "type": "foodhh",
      "days": [
        "mon",
        "tue",
        "wed",
        "thu",
        "fri",
        "sat",
        "sun"
      ],
      "start": 15,
      "end": 18,
      "detail": "\ud83c\udf54 Half-price margaritas + comfort food deals. Wings, burgers & truffle fries all on special.",
      "addr": "184 John St",
      "lat": 43.6487,
      "lng": -79.3902
    },
    {
      "name": "The Keg (Food)",
      "hood": "Financial",
      "type": "foodhh",
      "days": [
        "mon",
        "tue",
        "wed",
        "thu",
        "fri",
        "sat",
        "sun"
      ],
      "start": 16,
      "end": 18,
      "detail": "\ud83c\udf54 Cocktails + food from $7 during HH. 4\u20136pm & 10pm\u2013close.",
      "addr": "1 King St E",
      "lat": 43.649,
      "lng": -79.374
    },
    {
      "name": "Little Sister",
      "hood": "King West",
      "type": "foodhh",
      "days": [
        "mon",
        "tue",
        "wed",
        "thu",
        "fri",
        "sat",
        "sun"
      ],
      "start": 16.5,
      "end": 18.5,
      "detail": "\ud83c\udf54 Happy Jam snacks & drinks from $7 daily 4:30\u20136:30pm. Dutch-Indonesian food bar.",
      "addr": "628 King St W",
      "lat": 43.6443,
      "lng": -79.4111
    },
    {
      "name": "Waterworks \u2014 Tantxo",
      "hood": "King West",
      "type": "foodhh",
      "days": [
        "mon"
      ],
      "start": 17,
      "end": 22,
      "detail": "\ud83c\udf54 $20 steak frites every Monday. Argentinian steak house in the Waterworks Food Hall.",
      "addr": "505 Richmond St W",
      "lat": 43.6462,
      "lng": -79.4067
    },
    {
      "name": "Waterworks \u2014 Grape Witches",
      "hood": "King West",
      "type": "foodhh",
      "days": [
        "mon",
        "tue",
        "wed",
        "thu",
        "fri"
      ],
      "start": 15,
      "end": 18,
      "detail": "\ud83c\udf54 $12 rotating wine glasses + 20% off snacks weekdays 3\u20136pm. Natural wine in an Architectural Digest space.",
      "addr": "505 Richmond St W",
      "lat": 43.6462,
      "lng": -79.4067
    },
    {
      "name": "Waterworks \u2014 Central Bar",
      "hood": "King West",
      "type": "foodhh",
      "days": [
        "mon",
        "tue",
        "wed",
        "thu",
        "fri",
        "sat",
        "sun"
      ],
      "start": 15,
      "end": 18,
      "detail": "\ud83c\udf54 $6 local beer, $10 cocktails 3\u20136pm daily.",
      "addr": "505 Richmond St W",
      "lat": 43.6462,
      "lng": -79.4067
    },
    {
      "name": "Jules Bistro",
      "hood": "Queen West",
      "type": "foodhh",
      "days": [
        "tue"
      ],
      "start": 17,
      "end": 22,
      "detail": "\ud83c\udf54 Half-price c\u00f4te de boeuf Tuesdays \u2014 24oz AAA ribeye with fries & salad for ~$59. Book ahead.",
      "addr": "147 Spadina Ave",
      "lat": 43.6481,
      "lng": -79.3966
    },
    {
      "name": "The Carbon Bar",
      "hood": "Financial",
      "type": "foodhh",
      "days": [
        "mon",
        "tue",
        "wed",
        "thu",
        "fri",
        "sat",
        "sun"
      ],
      "start": 17,
      "end": 20,
      "detail": "\ud83c\udf54 $11 cocktails (Smokin' Manhattan, Tokyo Breeze), BBQ comfort food deals. Sun\u2013Wed 8pm\u2013close, Thu\u2013Sat 9pm\u2013close.",
      "addr": "99 Queen St E",
      "lat": 43.6513,
      "lng": -79.374
    },
    {
      "name": "Ficoa",
      "hood": "Kensington",
      "type": "foodhh",
      "days": [
        "thu",
        "fri"
      ],
      "start": 20,
      "end": 26,
      "detail": "\ud83c\udf54 Pachanga Hour: each drink order unlocks a free snack \u2014 starts with marinated olives, escalates to duck wings and rib-eye bites. Thu\u2013Fri 8pm\u2013close.",
      "addr": "585 College St",
      "lat": 43.6544,
      "lng": -79.4093
    },
    {
      "name": "Ricky + Oliva",
      "hood": "Leslieville",
      "type": "foodhh",
      "days": [
        "tue",
        "wed",
        "thu",
        "fri",
        "sat"
      ],
      "start": 15,
      "end": 17,
      "detail": "\ud83c\udf54 $10 wine glasses, $6 lagers, $12 batched cocktails + food deals Tue\u2013Sat 3\u20135pm.",
      "addr": "978 Queen St E",
      "lat": 43.6596,
      "lng": -79.3418
    },
    {
      "name": "Ladybug Wine Bar",
      "hood": "Corktown",
      "type": "foodhh",
      "days": [
        "tue"
      ],
      "start": 17,
      "end": 22,
      "detail": "\ud83c\udf54 $30 prix fixe menu Tuesdays. Retail Sunday \u2014 sip any bottle at takeaway prices.",
      "addr": "926 Queen St E",
      "lat": 43.6597,
      "lng": -79.3435
    },
    {
      "name": "Henry's",
      "hood": "Queen West",
      "type": "foodhh",
      "days": [
        "tue"
      ],
      "start": 18,
      "end": 22,
      "detail": "\ud83c\udf54 Family-style prix fixe $40pp Tuesdays \u2014 roast chicken, kale salad, potato pav\u00e9. Wine shop + restaurant.",
      "addr": "600 Queen St W",
      "lat": 43.6485,
      "lng": -79.4091
    },
    {
      "name": "Pai",
      "hood": "Financial",
      "type": "foodhh",
      "days": [
        "mon",
        "tue",
        "wed",
        "thu",
        "fri"
      ],
      "start": 17,
      "end": 18,
      "detail": "\ud83c\udf54 $7 Chang beer, $8 cocktails, $9 bar snacks 5\u20136pm. Best Thai in the Financial District.",
      "addr": "18 Duncan St",
      "lat": 43.6479,
      "lng": -79.3884
    },
    {
      "name": "The Citizen",
      "hood": "Financial",
      "type": "foodhh",
      "days": [
        "mon",
        "tue",
        "wed",
        "thu",
        "fri"
      ],
      "start": 16,
      "end": 18,
      "detail": "\ud83c\udf54 $6 draft, $7 wine, $9 apps Mon\u2013Fri 4\u20136pm.",
      "addr": "147 King St W",
      "lat": 43.6479,
      "lng": -79.3838
    },
    {
      "name": "Minami",
      "hood": "Entertainment",
      "type": "foodhh",
      "days": [
        "mon",
        "tue",
        "wed",
        "thu",
        "fri",
        "sat",
        "sun"
      ],
      "start": 14,
      "end": 17,
      "detail": "\ud83c\udf54 Japanese-inspired drinks & mini eats all under $12. 2\u20135pm daily + late nights.",
      "addr": "225 King St W",
      "lat": 43.6475,
      "lng": -79.387
    },
    {
      "name": "Chotto Matte",
      "hood": "Financial",
      "type": "foodhh",
      "days": [
        "mon",
        "tue",
        "wed",
        "thu",
        "fri"
      ],
      "start": 16,
      "end": 18,
      "detail": "\ud83c\udf54 2-for-1 all drinks! $5 edamame, $9 salmon tostada, $14 nikkei gyoza. Nikkei cuisine.",
      "addr": "161 Bay St",
      "lat": 43.648,
      "lng": -79.38
    },
    {
      "name": "Vinny's",
      "hood": "King West",
      "type": "foodhh",
      "days": [
        "sun",
        "mon",
        "tue",
        "wed",
        "thu"
      ],
      "start": 17,
      "end": 19,
      "detail": "\ud83c\udf54 $2 oysters w/ yuzu mignonette, $12 fried chicken bucket, $10 cocktails Sun\u2013Thu 5\u20137pm.",
      "addr": "480 King St W",
      "lat": 43.6456,
      "lng": -79.4001
    },
    {
      "name": "CKTL & Co",
      "hood": "Financial",
      "type": "foodhh",
      "days": [
        "mon",
        "tue",
        "wed",
        "thu",
        "fri"
      ],
      "start": 14,
      "end": 17,
      "detail": "\ud83c\udf54 $7 wine, $7 beer + food Mon\u2013Fri 2\u20135pm.",
      "addr": "77 Adelaide St W",
      "lat": 43.6494,
      "lng": -79.3835
    },
    {
      "name": "La Palma",
      "hood": "Kensington",
      "type": "foodhh",
      "days": [
        "mon",
        "tue",
        "wed",
        "thu",
        "fri"
      ],
      "start": 17,
      "end": 18,
      "detail": "\ud83c\udf54 $8 Aperol spritz, $7 wine, $10 pizza slices 5\u20136pm weekdays.",
      "addr": "849 Dundas St W",
      "lat": 43.651,
      "lng": -79.4155
    },
    {
      "name": "The Cottage Cheese",
      "hood": "Kensington",
      "type": "foodhh",
      "days": [
        "mon",
        "tue",
        "wed",
        "thu",
        "fri"
      ],
      "start": 12,
      "end": 16,
      "detail": "\ud83c\udf54 $10\u2013$12 Indian small plates & drink specials weekdays noon\u20134pm. Local fave comfort food.",
      "addr": "503 College St",
      "lat": 43.6554,
      "lng": -79.4072
    },
    {
      "name": "Bar Raval (Food)",
      "hood": "Kensington",
      "type": "foodhh",
      "days": [
        "mon",
        "tue",
        "wed",
        "thu",
        "fri"
      ],
      "start": 15,
      "end": 18,
      "detail": "\ud83c\udf54 $6 pintxos, Spanish bar snacks & bites 3\u20136pm weekdays. Best tapas in Toronto.",
      "addr": "505 College St",
      "lat": 43.6545,
      "lng": -79.4198
    },
    {
      "name": "The Drake Hotel",
      "hood": "Queen West",
      "type": "happyhour",
      "days": [
        "mon",
        "tue",
        "wed",
        "thu",
        "fri"
      ],
      "start": 17,
      "end": 19,
      "detail": "$6 drafts, $8 house wine, $10 bar bites. HH Mon\u2013Fri 5\u20137pm. Spicy sake maki hand roll special.",
      "addr": "1150 Queen St W",
      "lat": 43.643,
      "lng": -79.4282
    },
    {
      "name": "Dasha",
      "hood": "King West",
      "type": "happyhour",
      "days": [
        "mon",
        "tue",
        "wed",
        "thu",
        "fri"
      ],
      "start": 17,
      "end": 19,
      "detail": "Half-price wine bottles, $16 cocktails. Private karaoke rooms available.",
      "addr": "690 King St W",
      "lat": 43.6441,
      "lng": -79.4116
    },
    {
      "name": "Snakes & Lattes Annex",
      "hood": "Annex",
      "type": "trivia",
      "days": [
        "tue"
      ],
      "start": 19,
      "end": 21,
      "detail": "General trivia \u2014 6 rounds, free popcorn, $50 gift card for 1st. $5 pints",
      "addr": "600 Bloor St W",
      "lat": 43.6653,
      "lng": -79.4115
    },
    {
      "name": "The Handlebar",
      "hood": "Kensington",
      "type": "trivia",
      "days": [
        "tue"
      ],
      "start": 19,
      "end": 21,
      "detail": "Pub trivia by Quiz Me Quick. Free to play, prizes for top 3",
      "addr": "159 Augusta Ave",
      "lat": 43.6541,
      "lng": -79.4038
    },
    {
      "name": "The Piston",
      "hood": "Bloor West",
      "type": "trivia",
      "days": [
        "wed"
      ],
      "start": 20,
      "end": 22,
      "detail": "Wednesday trivia, bar prizes. Teams up to 6. Free entry",
      "addr": "937 Bloor St W",
      "lat": 43.6629,
      "lng": -79.4282
    },
    {
      "name": "Habits Gastropub",
      "hood": "Kensington",
      "type": "trivia",
      "days": [
        "wed"
      ],
      "start": 20,
      "end": 22,
      "detail": "Weekly pub quiz. $2 off drinks during trivia",
      "addr": "148 College St",
      "lat": 43.657,
      "lng": -79.4006
    },
    {
      "name": "Madisons",
      "hood": "Annex",
      "type": "trivia",
      "days": [
        "mon"
      ],
      "start": 19,
      "end": 21,
      "detail": "Monday Night Trivia \u2014 Name That Tune rounds, prizes. Free",
      "addr": "14 Baldwin St",
      "lat": 43.6596,
      "lng": -79.3946
    },
    {
      "name": "Harbord House",
      "hood": "Annex",
      "type": "trivia",
      "days": [
        "mon"
      ],
      "start": 19,
      "end": 21,
      "detail": "Monday trivia 7\u20139:30pm. No fee. Get there early",
      "addr": "2 Harbord St",
      "lat": 43.6619,
      "lng": -79.3984
    },
    {
      "name": "Pegasus On Church",
      "hood": "Church",
      "type": "trivia",
      "days": [
        "tue",
        "wed"
      ],
      "start": 20,
      "end": 22,
      "detail": "LGBTQ+ trivia nights Tue & Wed \u2014 themed rounds, bingo too",
      "addr": "489 Church St",
      "lat": 43.665,
      "lng": -79.3822
    },
    {
      "name": "The Ossington",
      "hood": "Ossington",
      "type": "trivia",
      "days": [
        "sun"
      ],
      "start": 19,
      "end": 21,
      "detail": "Brass Facts trivia Sundays \u2014 karaoke follows at 10pm",
      "addr": "61 Ossington Ave",
      "lat": 43.6476,
      "lng": -79.4233
    },
    {
      "name": "The 3030",
      "hood": "Bloor West",
      "type": "trivia",
      "days": [
        "tue"
      ],
      "start": 19,
      "end": 21,
      "detail": "Pub trivia Tuesdays. Cash prizes. $5 entry per person",
      "addr": "3030 Dundas St W",
      "lat": 43.6627,
      "lng": -79.4688
    },
    {
      "name": "Kramer's Bar & Grill",
      "hood": "Annex",
      "type": "trivia",
      "days": [
        "tue",
        "wed"
      ],
      "start": 20,
      "end": 22,
      "detail": "Trivia Tue & Wed \u2014 so popular they added a second night",
      "addr": "177 Harbord St",
      "lat": 43.6614,
      "lng": -79.4132
    },
    {
      "name": "Left Field Brewery (Trivia)",
      "hood": "Leslieville",
      "type": "trivia",
      "days": [
        "wed"
      ],
      "start": 19,
      "end": 21,
      "detail": "Brass Facts Trivia \u2014 geography, music, sports, history",
      "addr": "36 Wagstaff Dr",
      "lat": 43.6632,
      "lng": -79.3264
    },
    {
      "name": "The Meltdown",
      "hood": "Kensington",
      "type": "openmic",
      "days": [
        "mon"
      ],
      "start": 20,
      "end": 23,
      "detail": "Comedy open mic every Monday. Show up, go up. 5-min spots. Happy hour",
      "addr": "686 College St",
      "lat": 43.6558,
      "lng": -79.4136
    },
    {
      "name": "The Communist's Daughter",
      "hood": "Ossington",
      "type": "openmic",
      "days": [
        "mon"
      ],
      "start": 20,
      "end": 23,
      "detail": "Open mic \u2014 free entry, sign up from 8pm. Rotating acoustic sets",
      "addr": "1149 Dundas St W",
      "lat": 43.6531,
      "lng": -79.4353
    },
    {
      "name": "The Dakota Tavern",
      "hood": "Kensington",
      "type": "openmic",
      "days": [
        "mon"
      ],
      "start": 21,
      "end": 24,
      "detail": "Bluegrass open mic every Monday. No cover. Bring your instrument",
      "addr": "249 Ossington Ave",
      "lat": 43.6562,
      "lng": -79.4264
    },
    {
      "name": "The Cameron House",
      "hood": "Queen West",
      "type": "openmic",
      "days": [
        "mon",
        "tue"
      ],
      "start": 21,
      "end": 24,
      "detail": "Nightly live music & open mic. No cover. Legendary Toronto venue",
      "addr": "408 Queen St W",
      "lat": 43.649,
      "lng": -79.4063
    },
    {
      "name": "The Garrison",
      "hood": "Kensington",
      "type": "openmic",
      "days": [
        "tue"
      ],
      "start": 20,
      "end": 23,
      "detail": "Open mic \u2014 all genres welcome. Free entry. 10 slots per night",
      "addr": "1197 Dundas St W",
      "lat": 43.6519,
      "lng": -79.4387
    },
    {
      "name": "The Bovine Sex Club",
      "hood": "Queen West",
      "type": "openmic",
      "days": [
        "wed"
      ],
      "start": 21,
      "end": 24,
      "detail": "Open mic Wed \u2014 rock/punk/experimental. $5 cover",
      "addr": "542 Queen St W",
      "lat": 43.6487,
      "lng": -79.4169
    },
    {
      "name": "The Burdock",
      "hood": "Bloor West",
      "type": "openmic",
      "days": [
        "sun"
      ],
      "start": 19,
      "end": 22,
      "detail": "Sunday songwriter circle. Intimate acoustic sets. Free",
      "addr": "1184 Bloor St W",
      "lat": 43.6627,
      "lng": -79.4384
    },
    {
      "name": "The Corner Comedy Club",
      "hood": "Financial",
      "type": "openmic",
      "days": [
        "mon",
        "thu"
      ],
      "start": 20,
      "end": 23,
      "detail": "Open mic nights \u2014 max 50 guests. Back alley entrance",
      "addr": "381 King St W",
      "lat": 43.6468,
      "lng": -79.3948
    },
    {
      "name": "Comedy Bar",
      "hood": "Bloor West",
      "type": "comedy",
      "days": [
        "thu",
        "fri",
        "sat"
      ],
      "start": 20,
      "end": 23,
      "detail": "150+ shows/month \u2014 stand-up, sketch, alternative. $15\u201320",
      "addr": "945 Bloor St W",
      "lat": 43.6631,
      "lng": -79.4285
    },
    {
      "name": "Yuk Yuk's",
      "hood": "Financial",
      "type": "comedy",
      "days": [
        "wed",
        "thu",
        "fri",
        "sat"
      ],
      "start": 20,
      "end": 23,
      "detail": "Canada's iconic comedy club since 1976. Headline acts + showcases",
      "addr": "224 Richmond St W",
      "lat": 43.6509,
      "lng": -79.3885
    },
    {
      "name": "The Monarch Tavern",
      "hood": "Kensington",
      "type": "comedy",
      "days": [
        "thu"
      ],
      "start": 20,
      "end": 22,
      "detail": "Comedy night every Thursday. $10 includes a drink ticket",
      "addr": "12 Clinton St",
      "lat": 43.6565,
      "lng": -79.4153
    },
    {
      "name": "The Rivoli",
      "hood": "Queen West",
      "type": "comedy",
      "days": [
        "wed"
      ],
      "start": 20,
      "end": 22,
      "detail": "Stand-up showcase Wednesdays. $8 cover. Rotating local comics",
      "addr": "334 Queen St W",
      "lat": 43.6492,
      "lng": -79.3991
    },
    {
      "name": "Absolute Comedy",
      "hood": "Yorkville",
      "type": "comedy",
      "days": [
        "wed",
        "thu",
        "fri",
        "sat"
      ],
      "start": 20,
      "end": 23,
      "detail": "Canadian & American comedians. Classic uptown comedy bar",
      "addr": "2335 Yonge St",
      "lat": 43.7082,
      "lng": -79.3983
    },
    {
      "name": "Bad Dog Theatre",
      "hood": "Bloor West",
      "type": "comedy",
      "days": [
        "fri",
        "sat"
      ],
      "start": 20,
      "end": 22,
      "detail": "Improv since 1982. Colin Mochrie, Mike Myers alumni",
      "addr": "875 Bloor St W",
      "lat": 43.6629,
      "lng": -79.4255
    },
    {
      "name": "Bar+ Karaoke",
      "hood": "Financial",
      "type": "karaoke",
      "days": [
        "mon",
        "tue",
        "wed",
        "thu",
        "fri",
        "sat",
        "sun"
      ],
      "start": 18,
      "end": 26,
      "detail": "Premier private karaoke rooms \u2014 English, Korean, Chinese, Japanese",
      "addr": "360 Yonge St",
      "lat": 43.6593,
      "lng": -79.3797
    },
    {
      "name": "Bar Neon",
      "hood": "Kensington",
      "type": "karaoke",
      "days": [
        "thu",
        "fri",
        "sat"
      ],
      "start": 21,
      "end": 26,
      "detail": "Private karaoke rooms. Walk-ins welcome. $15/person/hr",
      "addr": "230 Augusta Ave",
      "lat": 43.6541,
      "lng": -79.4038
    },
    {
      "name": "Karaoke Lounge 99",
      "hood": "Chinatown",
      "type": "karaoke",
      "days": [
        "wed",
        "thu",
        "fri",
        "sat",
        "sun"
      ],
      "start": 19,
      "end": 26,
      "detail": "Private rooms, 50,000+ songs. $12\u201318/person/hr",
      "addr": "99 Spadina Ave",
      "lat": 43.6504,
      "lng": -79.3962
    },
    {
      "name": "The Rec Room (karaoke)",
      "hood": "Financial",
      "type": "karaoke",
      "days": [
        "fri",
        "sat"
      ],
      "start": 20,
      "end": 26,
      "detail": "Open karaoke stage Fri & Sat. Free entry. Slots fill fast",
      "addr": "255 Bremner Blvd",
      "lat": 43.6425,
      "lng": -79.3867
    },
    {
      "name": "Penny's Bar",
      "hood": "Bloor West",
      "type": "karaoke",
      "days": [
        "wed",
        "thu"
      ],
      "start": 21,
      "end": 26,
      "detail": "Local fave karaoke Wed & Thu. Free popcorn, $5 sliders",
      "addr": "1306 Bloor St W",
      "lat": 43.6631,
      "lng": -79.4434
    },
    {
      "name": "Church St Garage",
      "hood": "Church",
      "type": "karaoke",
      "days": [
        "wed",
        "thu",
        "fri",
        "sat"
      ],
      "start": 22,
      "end": 26,
      "detail": "Host Steve-Oh. Church Village karaoke. Wed\u2013Sat 10pm\u20132am",
      "addr": "477 Church St",
      "lat": 43.6657,
      "lng": -79.382
    },
    {
      "name": "Echo Karaoke & Lounge",
      "hood": "Chinatown",
      "type": "karaoke",
      "days": [
        "mon",
        "tue",
        "wed",
        "thu",
        "fri",
        "sat",
        "sun"
      ],
      "start": 18,
      "end": 26,
      "detail": "Top-rated karaoke. Private rooms, multi-language songbook",
      "addr": "256 Spadina Ave",
      "lat": 43.6538,
      "lng": -79.3957
    },
    {
      "name": "B-Boss KTV",
      "hood": "Chinatown",
      "type": "karaoke",
      "days": [
        "mon",
        "tue",
        "wed",
        "thu",
        "fri",
        "sat",
        "sun"
      ],
      "start": 18,
      "end": 26,
      "detail": "Sleek private rooms, Asian & English songs",
      "addr": "280 Spadina Ave",
      "lat": 43.6535,
      "lng": -79.3952
    },
    {
      "name": "Twister Karaoke",
      "hood": "Annex",
      "type": "karaoke",
      "days": [
        "mon",
        "tue",
        "wed",
        "thu",
        "fri",
        "sat",
        "sun"
      ],
      "start": 18,
      "end": 26,
      "detail": "Koreatown staple \u2014 300,000+ songs",
      "addr": "691 Bloor St W",
      "lat": 43.6644,
      "lng": -79.4118
    },
    {
      "name": "The Gladstone House",
      "hood": "Queen West",
      "type": "drag",
      "days": [
        "wed",
        "sat"
      ],
      "start": 20,
      "end": 23,
      "detail": "Drag bingo Wed ($15, sells out). Drag shows Sat",
      "addr": "1214 Queen St W",
      "lat": 43.6432,
      "lng": -79.4285
    },
    {
      "name": "Crews & Tangos",
      "hood": "Church",
      "type": "drag",
      "days": [
        "thu",
        "fri",
        "sat",
        "sun"
      ],
      "start": 21,
      "end": 26,
      "detail": "Church Village drag performances, dance floor, multiple bars",
      "addr": "508 Church St",
      "lat": 43.6649,
      "lng": -79.3818
    },
    {
      "name": "Pegasus On Church",
      "hood": "Church",
      "type": "drag",
      "days": [
        "fri",
        "sat"
      ],
      "start": 21,
      "end": 24,
      "detail": "Drag shows & LGBTQ+ events on weekends",
      "addr": "489 Church St",
      "lat": 43.665,
      "lng": -79.3822
    },
    {
      "name": "The Drake Hotel",
      "hood": "Queen West",
      "type": "dj",
      "days": [
        "fri",
        "sat"
      ],
      "start": 22,
      "end": 26,
      "detail": "Resident DJ sets in the Underground. No cover before 11pm",
      "addr": "1150 Queen St W",
      "lat": 43.643,
      "lng": -79.4282
    },
    {
      "name": "Baro",
      "hood": "King West",
      "type": "dj",
      "days": [
        "thu",
        "fri",
        "sat"
      ],
      "start": 22,
      "end": 26,
      "detail": "DJ nights Thu\u2013Sat. Latin & Afrobeats. $10 cover after 10pm",
      "addr": "485 King St W",
      "lat": 43.645,
      "lng": -79.4022
    },
    {
      "name": "Sneaky Dee's",
      "hood": "Kensington",
      "type": "dj",
      "days": [
        "fri",
        "sat"
      ],
      "start": 22,
      "end": 26,
      "detail": "Free DJ nights upstairs on weekends. Cheap drinks",
      "addr": "431 College St",
      "lat": 43.6557,
      "lng": -79.4082
    },
    {
      "name": "The Ballroom",
      "hood": "Financial",
      "type": "bingo",
      "days": [
        "thu"
      ],
      "start": 20,
      "end": 22,
      "detail": "Music bingo Thursdays. Free to play. Prizes every round",
      "addr": "145 John St",
      "lat": 43.6481,
      "lng": -79.3892
    },
    {
      "name": "Jazz Bistro",
      "hood": "Financial",
      "type": "jazz",
      "days": [
        "tue",
        "wed",
        "thu",
        "fri",
        "sat"
      ],
      "start": 19,
      "end": 23,
      "detail": "Premier Toronto jazz venue \u2014 live jazz nightly from 7pm",
      "addr": "251 Victoria St",
      "lat": 43.656,
      "lng": -79.3773
    },
    {
      "name": "The Rex Hotel Jazz Bar",
      "hood": "Financial",
      "type": "jazz",
      "days": [
        "mon",
        "tue",
        "wed",
        "thu",
        "fri",
        "sat",
        "sun"
      ],
      "start": 18,
      "end": 24,
      "detail": "Live jazz & blues every night. Two shows daily. No cover",
      "addr": "194 Queen St W",
      "lat": 43.6504,
      "lng": -79.3868
    },
    {
      "name": "Emmet Ray",
      "hood": "Annex",
      "type": "jazz",
      "days": [
        "mon",
        "tue",
        "wed",
        "thu",
        "fri",
        "sat",
        "sun"
      ],
      "start": 17,
      "end": 23,
      "detail": "Jazz bar with rotating performers. Whisky specialists",
      "addr": "924 College St",
      "lat": 43.6547,
      "lng": -79.4256
    },
    {
      "name": "The Horseshoe Tavern",
      "hood": "Queen West",
      "type": "livemusic",
      "days": [
        "mon",
        "tue",
        "wed",
        "thu",
        "fri",
        "sat",
        "sun"
      ],
      "start": 20,
      "end": 24,
      "detail": "Toronto's most iconic live music venue since 1947",
      "addr": "370 Queen St W",
      "lat": 43.6489,
      "lng": -79.4027
    },
    {
      "name": "Lee's Palace",
      "hood": "Annex",
      "type": "livemusic",
      "days": [
        "thu",
        "fri",
        "sat"
      ],
      "start": 20,
      "end": 24,
      "detail": "Legendary mid-size venue \u2014 indie, rock, metal",
      "addr": "529 Bloor St W",
      "lat": 43.6647,
      "lng": -79.4094
    },
    {
      "name": "Sweaty Betty's",
      "hood": "Queen West",
      "type": "livemusic",
      "days": [
        "wed",
        "thu",
        "fri",
        "sat"
      ],
      "start": 21,
      "end": 26,
      "detail": "Live bands most nights. No cover early. Classic dive bar",
      "addr": "13 Ossington Ave",
      "lat": 43.6478,
      "lng": -79.4218
    }
  ],
  "total": 144
}