{
  "version": 1,
  "updated": "2026-03-28",
  "venues": [
    {
      "name": "Bar Raval",
      "hood": "Kensington",
      "type": "drinkhh",
      "days": [
        "mon",
        "tue",
        "wed",
        "thu",
        "fri"
      ],
      "start": 15,
      "end": 18,
      "detail": "🍸 $6 pintxos, $7 vermouth & natural wine, $5 beer. Best Spanish bar in the city.",
      "addr": "505 College St",
      "lat": 43.655877,
      "lng": -79.409924
    },
    {
      "name": "BarChef",
      "hood": "Queen West",
      "type": "drinkhh",
      "days": [
        "mon",
        "tue",
        "wed",
        "thu"
      ],
      "start": 17,
      "end": 19,
      "detail": "🍸 $10 cocktails (reg $18–22), $7 wine, $6 beer. Award-winning cocktail bar.",
      "addr": "472 Queen St W",
      "lat": 43.648075,
      "lng": -79.400118
    },
    {
      "name": "Canoe",
      "hood": "Financial",
      "type": "drinkhh",
      "days": [
        "mon",
        "tue",
        "wed",
        "thu",
        "fri"
      ],
      "start": 16,
      "end": 18,
      "detail": "🍸 $10 wine & beer, $12 cocktails. 54th floor views over Toronto.",
      "addr": "66 Wellington St W",
      "lat": 43.647134,
      "lng": -79.381433
    },
    {
      "name": "Reposado",
      "hood": "Ossington",
      "type": "drinkhh",
      "days": [
        "mon",
        "tue",
        "wed",
        "thu",
        "fri"
      ],
      "start": 17,
      "end": 19,
      "detail": "🍸 $8 margaritas, $6 Mexican beer, 2-for-1 shots. Best tequila bar in Toronto.",
      "addr": "136 Ossington Ave",
      "lat": 43.647276,
      "lng": -79.42015
    },
    {
      "name": "Bar Koukla",
      "hood": "Ossington",
      "type": "drinkhh",
      "days": [
        "mon",
        "tue",
        "wed",
        "thu",
        "fri",
        "sat",
        "sun"
      ],
      "start": 17,
      "end": 19,
      "detail": "🍸 Half-price wine bottles nightly. $10 classic martinis after 9pm.",
      "addr": "88 Ossington Ave",
      "lat": 43.646092,
      "lng": -79.419667
    },
    {
      "name": "Coffee Oysters Champagne",
      "hood": "Entertainment",
      "type": "drinkhh",
      "days": [
        "tue",
        "wed",
        "thu",
        "fri",
        "sat"
      ],
      "start": 17,
      "end": 23,
      "detail": "🍸 $5 espresso martinis AND classic martinis all night Tue–Sat. Speakeasy vibes.",
      "addr": "214 King St W",
      "lat": 43.647385,
      "lng": -79.386787
    },
    {
      "name": "Superpoint",
      "hood": "Ossington",
      "type": "drinkhh",
      "days": [
        "mon",
        "tue",
        "wed",
        "thu",
        "fri",
        "sat",
        "sun"
      ],
      "start": 15,
      "end": 18,
      "detail": "🍸 $5 Peroni, $6 natural wine, $7 spritz. Every day all week.",
      "addr": "184 Ossington Ave",
      "lat": 43.648382,
      "lng": -79.420704
    },
    {
      "name": "Bellwoods Brewery",
      "hood": "Queen West",
      "type": "drinkhh",
      "days": [
        "mon",
        "tue",
        "wed",
        "thu"
      ],
      "start": 15,
      "end": 18,
      "detail": "🍸 $6 pints on select house beers Mon–Thu.",
      "addr": "124 Ossington Ave",
      "lat": 43.647033,
      "lng": -79.420176
    },
    {
      "name": "Birreria Volo",
      "hood": "Kensington",
      "type": "drinkhh",
      "days": [
        "mon",
        "tue",
        "wed",
        "thu",
        "fri"
      ],
      "start": 16,
      "end": 18,
      "detail": "🍸 $6.50 house draft Tuesdays. Half-price wine Wednesdays. Craft beer cave.",
      "addr": "612 College St",
      "lat": 43.655188,
      "lng": -79.414603
    },
    {
      "name": "Bar Volo",
      "hood": "Yorkville",
      "type": "drinkhh",
      "days": [
        "mon",
        "tue",
        "wed",
        "thu",
        "fri"
      ],
      "start": 16,
      "end": 18,
      "detail": "🍸 $13 Italian spritzes. $6.50 house beers Tue. Half-price wine Wed. Bay-Cloverhill's best beer bar.",
      "addr": "17 St Nicholas St",
      "lat": 43.665552,
      "lng": -79.385651
    },
    {
      "name": "Archive Bar",
      "hood": "Trinity Bellwoods",
      "type": "drinkhh",
      "days": [
        "mon",
        "tue",
        "wed",
        "thu",
        "fri"
      ],
      "start": 16,
      "end": 18,
      "detail": "🍸 $7 wine & craft beer, $10 cocktails.",
      "addr": "909 Dundas St W",
      "lat": 43.650876,
      "lng": -79.412473
    },
    {
      "name": "Ace Hotel Bar",
      "hood": "Fashion District",
      "type": "drinkhh",
      "days": [
        "mon",
        "tue",
        "wed",
        "thu",
        "fri"
      ],
      "start": 16,
      "end": 19,
      "detail": "🍸 $12 wine by the glass, select cocktails weekdays 4–7pm. Sexy hotel bar.",
      "addr": "51 Camden St",
      "lat": 43.646715,
      "lng": -79.398055
    },
    {
      "name": "Bar Isabel",
      "hood": "Kensington",
      "type": "drinkhh",
      "days": [
        "tue",
        "wed",
        "thu",
        "fri",
        "sat"
      ],
      "start": 15,
      "end": 17,
      "detail": "🍸 $10 wine glasses, $6 lagers, $12 Dillon's cocktails. Closest thing to Spain in Toronto.",
      "addr": "797 College St",
      "lat": 43.654669,
      "lng": -79.420714
    },
    {
      "name": "King Taps",
      "hood": "Financial",
      "type": "drinkhh",
      "days": [
        "mon",
        "tue",
        "wed",
        "thu",
        "fri",
        "sat",
        "sun"
      ],
      "start": 15,
      "end": 18,
      "detail": "🍸 50% off wine Tue & Wed, $5 beers, $6 wines. Late night Sun–Wed too.",
      "addr": "100 King St W",
      "lat": 43.648768,
      "lng": -79.381692
    },
    {
      "name": "Bar Hop",
      "hood": "Financial",
      "type": "drinkhh",
      "days": [
        "mon",
        "tue",
        "wed",
        "thu",
        "fri"
      ],
      "start": 15,
      "end": 18,
      "detail": "🍸 Craft beer HH on rotating taps. Multiple taprooms downtown.",
      "addr": "391 King St W",
      "lat": 43.646773,
      "lng": -79.388931
    },
    {
      "name": "Richmond Station",
      "hood": "Financial",
      "type": "drinkhh",
      "days": [
        "mon",
        "tue",
        "wed",
        "thu",
        "fri"
      ],
      "start": 16,
      "end": 18,
      "detail": "🍸 $7 draft, $9 wine, $12 cocktails Mon–Fri.",
      "addr": "1 Richmond St W",
      "lat": 43.65144,
      "lng": -79.379004
    },
    {
      "name": "The Pilot Tavern",
      "hood": "Yorkville",
      "type": "drinkhh",
      "days": [
        "mon",
        "tue",
        "wed",
        "thu",
        "fri"
      ],
      "start": 16,
      "end": 18,
      "detail": "🍸 Craft brewery deals before Tuesday trivia. No cover for trivia.",
      "addr": "22 Cumberland St",
      "lat": 43.671033,
      "lng": -79.388051
    },
    {
      "name": "Boxcar Social",
      "hood": "Summerhill",
      "type": "drinkhh",
      "days": [
        "tue",
        "wed",
        "thu",
        "fri",
        "sat"
      ],
      "start": 16,
      "end": 19,
      "detail": "🍸 $5 shots & beers, $7 spritz & wine. Victorian two-storey bar with back patio.",
      "addr": "1208 Yonge St",
      "lat": 43.681698,
      "lng": -79.391648
    },
    {
      "name": "Lapinou",
      "hood": "King West",
      "type": "drinkhh",
      "days": [
        "tue",
        "wed",
        "thu",
        "fri",
        "sat"
      ],
      "start": 17,
      "end": 19,
      "detail": "🍸 $10 cocktails + Tue & Wed 50% off wine bottles. Cozy French bistro bar.",
      "addr": "642 King St W",
      "lat": 43.644309,
      "lng": -79.401446
    },
    {
      "name": "Añejo",
      "hood": "King West",
      "type": "drinkhh",
      "days": [
        "mon",
        "tue",
        "wed",
        "thu",
        "fri",
        "sat",
        "sun"
      ],
      "start": 15,
      "end": 17,
      "detail": "🍸 $7 margaritas & beers. Also 10pm–midnight daily. Canada's best tequila bar.",
      "addr": "600 King St W",
      "lat": 43.644598,
      "lng": -79.399896
    },
    {
      "name": "The Rabbit Hole",
      "hood": "Financial",
      "type": "drinkhh",
      "days": [
        "mon",
        "tue",
        "wed",
        "thu",
        "fri",
        "sat"
      ],
      "start": 15,
      "end": 18,
      "detail": "🍸 $7 beers, $12 cocktails, $10 wine. British gastropub with great patio.",
      "addr": "21 Adelaide St W",
      "lat": 43.649838,
      "lng": -79.38059
    },
    {
      "name": "Melrose on Adelaide",
      "hood": "Entertainment",
      "type": "drinkhh",
      "days": [
        "mon",
        "tue",
        "wed",
        "thu",
        "fri",
        "sat",
        "sun"
      ],
      "start": 14,
      "end": 18,
      "detail": "🍸 Half-price bottles of wine 2–6pm daily. Late night Sun–Wed too.",
      "addr": "270 Adelaide St W",
      "lat": 43.648104,
      "lng": -79.389902
    },
    {
      "name": "Cocktail Bar",
      "hood": "Trinity Bellwoods",
      "type": "drinkhh",
      "days": [
        "mon",
        "tue",
        "wed",
        "thu",
        "fri",
        "sat",
        "sun"
      ],
      "start": 17,
      "end": 19,
      "detail": "🍸 Daily $12 menu drinks 5–7pm. Perfect back patio.",
      "addr": "923 Dundas St W",
      "lat": 43.650705,
      "lng": -79.413268
    },
    {
      "name": "The Comrade",
      "hood": "Riverside",
      "type": "drinkhh",
      "days": [
        "mon",
        "tue",
        "wed",
        "thu",
        "fri",
        "sat",
        "sun"
      ],
      "start": 17,
      "end": 19,
      "detail": "🍸 $12 select cocktails every day 5–7pm. Dark, sexy taxidermy bar.",
      "addr": "758 Queen St E",
      "lat": 43.659418,
      "lng": -79.34795
    },
    {
      "name": "Chez Nous",
      "hood": "Riverside",
      "type": "drinkhh",
      "days": [
        "mon",
        "tue",
        "wed",
        "thu",
        "fri",
        "sat",
        "sun"
      ],
      "start": 17,
      "end": 19,
      "detail": "🍸 $9 house wines, $6 select beers, $12 cocktails 5–7pm. Half-price bottles after 11pm & all day Sun.",
      "addr": "798 Queen St E",
      "lat": 43.659665,
      "lng": -79.346956
    },
    {
      "name": "Paradise Grapevine",
      "hood": "Geary",
      "type": "drinkhh",
      "days": [
        "mon",
        "tue",
        "wed",
        "thu",
        "fri",
        "sat",
        "sun"
      ],
      "start": 17,
      "end": 18,
      "detail": "🍸 $10 glasses of house-label wine 5–6pm daily. Natural wine bar & urban winery.",
      "addr": "218 Geary Ave",
      "lat": 43.669784,
      "lng": -79.438487
    },
    {
      "name": "Le Tigre",
      "hood": "Rosedale",
      "type": "drinkhh",
      "days": [
        "mon",
        "tue",
        "wed",
        "thu",
        "fri",
        "sat",
        "sun"
      ],
      "start": 17,
      "end": 19,
      "detail": "🍸 Half-price martinis all night Monday + Tue–Sun 5–7pm. If Barbie had a neon-pink cocktail bar.",
      "addr": "1060 Yonge St",
      "lat": 43.677514,
      "lng": -79.389945
    },
    {
      "name": "Gloria",
      "hood": "Queen West",
      "type": "drinkhh",
      "days": [
        "mon",
        "tue",
        "wed",
        "thu",
        "fri",
        "sat",
        "sun"
      ],
      "start": 17,
      "end": 19,
      "detail": "🍸 $10 martinis 5–7pm daily. Casual French-American bistro in the Great Hall.",
      "addr": "1087 Queen St W",
      "lat": 43.643343,
      "lng": -79.4221
    },
    {
      "name": "Compton Ave.",
      "hood": "Little Portugal",
      "type": "drinkhh",
      "days": [
        "mon",
        "tue",
        "wed",
        "thu",
        "fri",
        "sat",
        "sun"
      ],
      "start": 18,
      "end": 20,
      "detail": "🍸 Daily $12 martinis 6–8pm. Moody cocktail bar, looks like a wealthy Londoner's home.",
      "addr": "1282 Dundas St W",
      "lat": 43.649592,
      "lng": -79.425416
    },
    {
      "name": "Hey Lucy",
      "hood": "King West",
      "type": "drinkhh",
      "days": [
        "wed"
      ],
      "start": 17,
      "end": 22,
      "detail": "🍸 $6.99 select martinis every Wednesday. Wood-fired pizza bar.",
      "addr": "295 King St W",
      "lat": 43.646294,
      "lng": -79.390055
    },
    {
      "name": "Maison Selby",
      "hood": "Yorkville",
      "type": "drinkhh",
      "days": [
        "mon",
        "tue",
        "wed",
        "thu",
        "fri",
        "sat",
        "sun"
      ],
      "start": 14,
      "end": 18,
      "detail": "🍸 $7 beer, $12 cocktails 2–6pm + 9pm–close daily.",
      "addr": "592 Sherbourne St",
      "lat": 43.671281,
      "lng": -79.376596
    },
    {
      "name": "General Public",
      "hood": "Geary",
      "type": "drinkhh",
      "days": [
        "mon",
        "tue",
        "wed",
        "thu",
        "fri",
        "sat",
        "sun"
      ],
      "start": 16,
      "end": 18,
      "detail": "🍸 Cocktails, beer & wine from $8 daily 4–6pm. Also the only time to get their legendary limited cheeseburger.",
      "addr": "201 Geary Ave",
      "lat": 43.669566,
      "lng": -79.437819
    },
    {
      "name": "Lulu Bar",
      "hood": "King West",
      "type": "drinkhh",
      "days": [
        "mon",
        "tue",
        "wed",
        "thu",
        "fri",
        "sat",
        "sun"
      ],
      "start": 15,
      "end": 18,
      "detail": "🍸 $10 tropical cocktails, $7 draught, half-price wine during Honolulu Hour 3–6pm daily.",
      "addr": "427 Wellington St W",
      "lat": 43.646503,
      "lng": -79.383547
    },
    {
      "name": "Bridgette Bar",
      "hood": "King West",
      "type": "drinkhh",
      "days": [
        "mon",
        "tue",
        "wed",
        "thu",
        "fri",
        "sat",
        "sun"
      ],
      "start": 14,
      "end": 17,
      "detail": "🍸 50% off wine, $10 cocktails 2–5pm daily.",
      "addr": "423 Wellington St W",
      "lat": 43.643428,
      "lng": -79.395608
    },
    {
      "name": "Pigeon",
      "hood": "King West",
      "type": "drinkhh",
      "days": [
        "mon",
        "tue",
        "wed",
        "thu",
        "fri",
        "sat",
        "sun"
      ],
      "start": 15.5,
      "end": 19,
      "detail": "🍸 $4.50 shots, $8 wine, $10 cocktails 3:30–7pm.",
      "addr": "337 King St W",
      "lat": 43.646081,
      "lng": -79.391435
    },
    {
      "name": "Ruby Soho",
      "hood": "King West",
      "type": "drinkhh",
      "days": [
        "mon",
        "tue",
        "wed",
        "thu",
        "fri",
        "sat",
        "sun"
      ],
      "start": 15,
      "end": 19,
      "detail": "🍸 Beer, cocktails & specials 3–7pm daily. Vinyl bar, TIFF celeb hotspot.",
      "addr": "587 King St W",
      "lat": 43.644329,
      "lng": -79.4002
    },
    {
      "name": "Café Renée",
      "hood": "King West",
      "type": "drinkhh",
      "days": [
        "mon",
        "tue",
        "wed",
        "thu",
        "fri",
        "sat",
        "sun"
      ],
      "start": 17,
      "end": 19,
      "detail": "🍸 $12 martinis 5–7pm daily.",
      "addr": "100 Portland St",
      "lat": 43.619875,
      "lng": -79.496359
    },
    {
      "name": "Locals Only",
      "hood": "King West",
      "type": "drinkhh",
      "days": [
        "mon",
        "tue",
        "wed",
        "thu",
        "fri",
        "sat",
        "sun"
      ],
      "start": 17,
      "end": 19,
      "detail": "🍸 50% off wine & oysters 5–7pm.",
      "addr": "589 King St W",
      "lat": 43.64432,
      "lng": -79.400243
    },
    {
      "name": "Burdock Brewery",
      "hood": "Bloordale",
      "type": "drinkhh",
      "days": [
        "mon",
        "tue",
        "wed",
        "thu",
        "fri"
      ],
      "start": 17,
      "end": 18,
      "detail": "🍸 $5 draft beer weekdays 5–6pm. Half-price wine Sundays. Half-price cellar Tuesdays.",
      "addr": "1184 Bloor St W",
      "lat": 43.659508,
      "lng": -79.437826
    },
    {
      "name": "The Wedge",
      "hood": "Bloor West",
      "type": "drinkhh",
      "days": [
        "mon",
        "tue",
        "wed",
        "thu",
        "fri"
      ],
      "start": 16,
      "end": 19,
      "detail": "🍸 $5 beers, $9 cocktails + food 4–7pm. Neighbourhood gem in the Junction.",
      "addr": "1627 Dupont St",
      "lat": 43.664725,
      "lng": -79.455243
    },
    {
      "name": "Indie Ale House",
      "hood": "Bloor West",
      "type": "drinkhh",
      "days": [
        "tue",
        "wed",
        "thu",
        "fri"
      ],
      "start": 15,
      "end": 18,
      "detail": "🍸 $7 beers Tue–Fri 3–6pm. Junction's beloved craft brewery.",
      "addr": "2876 Dundas St W",
      "lat": 43.665543,
      "lng": -79.4654
    },
    {
      "name": "The Draft Room",
      "hood": "Bloor West",
      "type": "drinkhh",
      "days": [
        "mon",
        "tue",
        "wed",
        "thu",
        "fri"
      ],
      "start": 16,
      "end": 18,
      "detail": "🍸 25% off cocktails, $6 beer 4–6pm Mon–Fri.",
      "addr": "395 Keele St",
      "lat": 43.665995,
      "lng": -79.464613
    },
    {
      "name": "Brazen Head",
      "hood": "Liberty Village",
      "type": "drinkhh",
      "days": [
        "mon",
        "tue",
        "wed",
        "thu",
        "fri",
        "sat",
        "sun"
      ],
      "start": 15,
      "end": 18,
      "detail": "🍸 Irish pub pint specials all day. $9 wine, $10 off wine bottles.",
      "addr": "165 East Liberty St",
      "lat": 43.638409,
      "lng": -79.417442
    },
    {
      "name": "Liberal Commons",
      "hood": "Liberty Village",
      "type": "drinkhh",
      "days": [
        "mon",
        "tue",
        "wed",
        "thu",
        "fri"
      ],
      "start": 16,
      "end": 18,
      "detail": "🍸 $5 domestic draft, $7 wine Mon–Fri 4–6pm.",
      "addr": "42 Liberty St",
      "lat": 43.637508,
      "lng": -79.424717
    },
    {
      "name": "Danforth Sidebar",
      "hood": "Riverdale",
      "type": "drinkhh",
      "days": [
        "mon",
        "tue",
        "wed",
        "thu",
        "fri",
        "sat",
        "sun"
      ],
      "start": 17,
      "end": 18,
      "detail": "🍸 $6 drinks on show nights 5–6pm. Oyster deals Wednesdays.",
      "addr": "161 Danforth Ave",
      "lat": 43.676442,
      "lng": -79.356898
    },
    {
      "name": "Ballyhoo Riverdale",
      "hood": "Danforth",
      "type": "drinkhh",
      "days": [
        "mon",
        "tue",
        "wed"
      ],
      "start": 16,
      "end": 17,
      "detail": "🍸 $0.99 wings, $5 lager, $9 cocktails Mon–Wed 4–5pm. Thu–Fri 3–5pm.",
      "addr": "526 Danforth Ave",
      "lat": 43.678426,
      "lng": -79.348171
    },
    {
      "name": "The Fortunate Fox",
      "hood": "Annex",
      "type": "drinkhh",
      "days": [
        "mon",
        "tue",
        "wed",
        "thu",
        "fri",
        "sat",
        "sun"
      ],
      "start": 22,
      "end": 26,
      "detail": "🍸 Food & drinks from $6 after 10pm nightly.",
      "addr": "280 Bloor St W",
      "lat": 43.667667,
      "lng": -79.400985
    },
    {
      "name": "Left Field Brewery",
      "hood": "Leslieville",
      "type": "drinkhh",
      "days": [
        "wed",
        "thu",
        "fri"
      ],
      "start": 16,
      "end": 18,
      "detail": "🍸 Taproom HH on house beers Wed–Fri 4–6pm. Brass Facts trivia Wednesdays.",
      "addr": "36 Wagstaff Dr",
      "lat": 43.67369,
      "lng": -79.330479
    },
    {
      "name": "Avling",
      "hood": "Leslieville",
      "type": "drinkhh",
      "days": [
        "tue",
        "wed",
        "thu",
        "fri"
      ],
      "start": 17,
      "end": 19,
      "detail": "🍸 $6 house lager, $8 natural wine Tue–Fri 5–7pm. Farm-to-table craft beer.",
      "addr": "1042 Queen St E",
      "lat": 43.661729,
      "lng": -79.338263
    },
    {
      "name": "Bar Niro",
      "hood": "Ossington",
      "type": "drinkhh",
      "days": [
        "mon",
        "tue",
        "wed",
        "thu",
        "fri",
        "sat",
        "sun"
      ],
      "start": 17,
      "end": 19,
      "detail": "🍸 $15 martinis daily aperitivo hour. Saxophones on Fridays. Roman jazz postcard vibes.",
      "addr": "1334 Dundas St W",
      "lat": 43.652052,
      "lng": -79.407243
    },
    {
      "name": "Grossman's Tavern",
      "hood": "Chinatown",
      "type": "drinkhh",
      "days": [
        "mon",
        "tue",
        "wed",
        "thu",
        "fri",
        "sat",
        "sun"
      ],
      "start": 17,
      "end": 20,
      "detail": "🍸 Drink specials nightly with live blues & jazz. No cover ever. Chinatown since 1943.",
      "addr": "379 Spadina Ave",
      "lat": 43.65603,
      "lng": -79.398947
    },
    {
      "name": "Dina's Tavern",
      "hood": "Kensington",
      "type": "drinkhh",
      "days": [
        "mon",
        "tue",
        "wed",
        "thu",
        "fri",
        "sat",
        "sun"
      ],
      "start": 17,
      "end": 19,
      "detail": "🍸 $6 beer, $9 wine. Monday jazz nights. Built on the Silver Dollar Room.",
      "addr": "486 Spadina Ave",
      "lat": 43.649113,
      "lng": -79.396401
    },
    {
      "name": "Cactus Club",
      "hood": "Financial",
      "type": "drinkhh",
      "days": [
        "mon",
        "tue",
        "wed",
        "thu",
        "fri",
        "sat",
        "sun"
      ],
      "start": 14,
      "end": 17,
      "detail": "🍸 $5–$8.25 beers, $8.25–$14.25 cocktails 2–5pm & 9pm–close. All day Sunday.",
      "addr": "77 Adelaide St W",
      "lat": 43.649414,
      "lng": -79.382084
    },
    {
      "name": "Earl's",
      "hood": "Yorkville",
      "type": "drinkhh",
      "days": [
        "mon",
        "tue",
        "wed",
        "thu",
        "fri",
        "sat",
        "sun"
      ],
      "start": 15,
      "end": 18,
      "detail": "🍸 Half-price drinks 3–6pm & 10pm–close every day.",
      "addr": "55 Bloor St W",
      "lat": 43.669671,
      "lng": -79.388752
    },
    {
      "name": "Joey Restaurant",
      "hood": "Downtown",
      "type": "drinkhh",
      "days": [
        "mon",
        "tue",
        "wed",
        "thu",
        "fri",
        "sat",
        "sun"
      ],
      "start": 15,
      "end": 18,
      "detail": "🍸 Drinks from $5. Daily 3–6pm + Sun–Thu 9pm–close, Fri–Sat 10pm–close.",
      "addr": "1 Dundas St W",
      "lat": 43.655794,
      "lng": -79.381677
    },
    {
      "name": "The Keg Esplanade",
      "hood": "Financial",
      "type": "drinkhh",
      "days": [
        "mon",
        "tue",
        "wed",
        "thu",
        "fri",
        "sat",
        "sun"
      ],
      "start": 16,
      "end": 18,
      "detail": "🍸 Cocktails & food from $7, 4–6pm & 10pm–close daily.",
      "addr": "1 King St E",
      "lat": 43.649058,
      "lng": -79.377843
    },
    {
      "name": "Shameful Tiki Room",
      "hood": "Queen West",
      "type": "drinkhh",
      "days": [
        "mon",
        "tue",
        "wed",
        "thu",
        "fri",
        "sat",
        "sun"
      ],
      "start": 17,
      "end": 19,
      "detail": "🍸 $13 best-selling cocktails, $5 shots, $6 Miller High Life 5–7pm daily. Retro tropical kitsch.",
      "addr": "777 Queen St W",
      "lat": 43.64626,
      "lng": -79.40808
    },
    {
      "name": "Big Trouble",
      "hood": "Chinatown",
      "type": "foodhh",
      "days": [
        "wed",
        "thu",
        "fri",
        "sat",
        "sun"
      ],
      "start": 17,
      "end": 19,
      "detail": "🍔 $5 snacks, $8 dumplings, $6 house lager, $10 cocktails (NO TAX!) Wed–Sun 5:30–7:30pm.",
      "addr": "270 Spadina Ave",
      "lat": 43.652306,
      "lng": -79.398088
    },
    {
      "name": "Chantecler",
      "hood": "Bloordale",
      "type": "foodhh",
      "days": [
        "mon",
        "wed",
        "thu",
        "fri",
        "sat",
        "sun"
      ],
      "start": 17,
      "end": 18,
      "detail": "🍔 $2 oysters, $10 snacks, $10 cocktails 5–6pm daily (closed Tue). Half-price wine bottles Monday.",
      "addr": "1320 Queen St W",
      "lat": 43.641846,
      "lng": -79.43127
    },
    {
      "name": "Good Company",
      "hood": "Queen West",
      "type": "foodhh",
      "days": [
        "tue",
        "wed",
        "thu",
        "fri",
        "sat",
        "sun"
      ],
      "start": 15,
      "end": 18,
      "detail": "🍔 $1/oz house wine, half-price oysters & wine list, discounted snacks Tue–Sun 3–6pm. Café-barbershop-snackbar.",
      "addr": "1184 Queen St W",
      "lat": 43.642903,
      "lng": -79.425851
    },
    {
      "name": "Pearl Diver",
      "hood": "Financial",
      "type": "foodhh",
      "days": [
        "mon",
        "tue",
        "wed",
        "thu",
        "fri",
        "sat",
        "sun"
      ],
      "start": 16.5,
      "end": 18.5,
      "detail": "🍔 $2 oysters by the dozen daily 4:30–6:30pm. 100 oysters for $100 on Thursdays (res required).",
      "addr": "89 Front St E",
      "lat": 43.650759,
      "lng": -79.366283
    },
    {
      "name": "Watson's",
      "hood": "Financial",
      "type": "foodhh",
      "days": [
        "sun",
        "mon"
      ],
      "start": 17,
      "end": 22,
      "detail": "🍔 Buck-a-shuck oysters + half-price wine Sunday & Monday. Cocktail bar.",
      "addr": "9 Church St",
      "lat": 43.647856,
      "lng": -79.373379
    },
    {
      "name": "ēst",
      "hood": "Riverside",
      "type": "foodhh",
      "days": [
        "tue",
        "thu"
      ],
      "start": 17,
      "end": 22,
      "detail": "🍔 Buck-a-Shuck + 25% off sparkling wine Tuesdays & Thursdays. Modern French dining.",
      "addr": "1168 Queen St E",
      "lat": 43.662889,
      "lng": -79.332389
    },
    {
      "name": "Island Oysters",
      "hood": "Bloordale",
      "type": "foodhh",
      "days": [
        "wed",
        "thu"
      ],
      "start": 17,
      "end": 21,
      "detail": "🍔 $2 rotating oysters all night Wednesday. $1.50 Malpeques Thu 5–7pm. Slice of the Maritimes.",
      "addr": "1371 Bloor St W",
      "lat": 43.657465,
      "lng": -79.446225
    },
    {
      "name": "Nuna Kitchen",
      "hood": "Queen West",
      "type": "foodhh",
      "days": [
        "wed"
      ],
      "start": 17,
      "end": 22,
      "detail": "🍔 Buck-a-Shuck oysters all Wednesday evening ($1–$2 while supplies last). HH drinks Tue–Sat 5–7pm.",
      "addr": "883 Queen St W",
      "lat": 43.645509,
      "lng": -79.411532
    },
    {
      "name": "Gusto 101",
      "hood": "King West",
      "type": "foodhh",
      "days": [
        "mon",
        "tue",
        "wed",
        "thu"
      ],
      "start": 15,
      "end": 17,
      "detail": "🍔 $1/oz house wine always available. $7+ food deals Mon–Thu 3–5pm. Invented dollar-an-ounce wine.",
      "addr": "101 Portland St",
      "lat": 43.644601,
      "lng": -79.400024
    },
    {
      "name": "Gusto 501",
      "hood": "Corktown",
      "type": "foodhh",
      "days": [
        "mon",
        "tue",
        "wed",
        "thu",
        "fri"
      ],
      "start": 17,
      "end": 18,
      "detail": "🍔 $6 Moretti, $10 red wine, $12 negronis. Focaccia $5, burger $16, pizza $14. Mon–Wed 5–6pm, Thu–Fri 3–5pm.",
      "addr": "501 King St E",
      "lat": 43.654608,
      "lng": -79.359712
    },
    {
      "name": "Lulu Bar (Food)",
      "hood": "King West",
      "type": "foodhh",
      "days": [
        "mon",
        "tue",
        "wed",
        "thu",
        "fri",
        "sat",
        "sun"
      ],
      "start": 15,
      "end": 18,
      "detail": "🍔 $8 salt-and-pepper pork belly bites, $6 hot dog bao, half-price wine. Honolulu Hour 3–6pm.",
      "addr": "427 Wellington St W",
      "lat": 43.646503,
      "lng": -79.383547
    },
    {
      "name": "Chubby's Jamaican",
      "hood": "King West",
      "type": "foodhh",
      "days": [
        "mon",
        "tue",
        "wed",
        "thu",
        "fri"
      ],
      "start": 15,
      "end": 18,
      "detail": "🍔 $6 baked jerk wings, $6 fried plantains, rum punch from $12. Island Time HH 3–6pm.",
      "addr": "104 Portland St",
      "lat": 43.645313,
      "lng": -79.400582
    },
    {
      "name": "Petty Cash",
      "hood": "King West",
      "type": "foodhh",
      "days": [
        "mon",
        "tue",
        "wed",
        "thu",
        "fri"
      ],
      "start": 17,
      "end": 19,
      "detail": "🍔 Half-price pizza + $7 bar rail all week. King West pizza bar.",
      "addr": "487 Adelaide St W",
      "lat": 43.6456,
      "lng": -79.400769
    },
    {
      "name": "El Catrin",
      "hood": "Distillery",
      "type": "foodhh",
      "days": [
        "mon",
        "tue",
        "wed",
        "thu",
        "fri"
      ],
      "start": 15,
      "end": 18,
      "detail": "🍔 $7 margaritas, $6 Modelo, half-price guac & queso, $5 tacos 3–6pm.",
      "addr": "18 Tank House Ln",
      "lat": 43.650572,
      "lng": -79.358703
    },
    {
      "name": "Añejo (Food)",
      "hood": "King West",
      "type": "foodhh",
      "days": [
        "mon",
        "tue",
        "wed",
        "thu",
        "fri",
        "sat",
        "sun"
      ],
      "start": 15,
      "end": 17,
      "detail": "🍔 $4 classic tacos + $7 margaritas 3–5pm & 10pm–midnight. Best deal in the city.",
      "addr": "600 King St W",
      "lat": 43.644598,
      "lng": -79.399896
    },
    {
      "name": "Baro",
      "hood": "King West",
      "type": "foodhh",
      "days": [
        "mon",
        "tue",
        "wed",
        "thu",
        "fri"
      ],
      "start": 16,
      "end": 18,
      "detail": "🍔 Half-price tacos, $8 cocktails, $6 beer & wine 4–6pm. Rooftop patio in season.",
      "addr": "485 King St W",
      "lat": 43.644891,
      "lng": -79.396977
    },
    {
      "name": "Craft Beer Market",
      "hood": "Financial",
      "type": "foodhh",
      "days": [
        "mon",
        "tue",
        "wed",
        "thu",
        "fri",
        "sat",
        "sun"
      ],
      "start": 15,
      "end": 18,
      "detail": "🍔 HH eats from $5. Beer salt fries $5, Cabo fish taco $6, pizza $16. 3–6pm daily.",
      "addr": "1 Adelaide St E",
      "lat": 43.65022,
      "lng": -79.377879
    },
    {
      "name": "Fox on John",
      "hood": "Entertainment",
      "type": "foodhh",
      "days": [
        "mon",
        "tue",
        "wed",
        "thu",
        "fri",
        "sat",
        "sun"
      ],
      "start": 15,
      "end": 18,
      "detail": "🍔 Half-price margaritas + comfort food deals. Wings, burgers & truffle fries all on special.",
      "addr": "184 John St",
      "lat": 43.705391,
      "lng": -79.510666
    },
    {
      "name": "The Keg (Food)",
      "hood": "Financial",
      "type": "foodhh",
      "days": [
        "mon",
        "tue",
        "wed",
        "thu",
        "fri",
        "sat",
        "sun"
      ],
      "start": 16,
      "end": 18,
      "detail": "🍔 Cocktails + food from $7 during HH. 4–6pm & 10pm–close.",
      "addr": "1 King St E",
      "lat": 43.649058,
      "lng": -79.377843
    },
    {
      "name": "Little Sister",
      "hood": "King West",
      "type": "foodhh",
      "days": [
        "mon",
        "tue",
        "wed",
        "thu",
        "fri",
        "sat",
        "sun"
      ],
      "start": 16.5,
      "end": 18.5,
      "detail": "🍔 Happy Jam snacks & drinks from $7 daily 4:30–6:30pm. Dutch-Indonesian food bar.",
      "addr": "628 King St W",
      "lat": 43.644318,
      "lng": -79.401152
    },
    {
      "name": "Waterworks — Tantxo",
      "hood": "King West",
      "type": "foodhh",
      "days": [
        "mon"
      ],
      "start": 17,
      "end": 22,
      "detail": "🍔 $20 steak frites every Monday. Argentinian steak house in the Waterworks Food Hall.",
      "addr": "505 Richmond St W",
      "lat": 43.647147,
      "lng": -79.399584
    },
    {
      "name": "Waterworks — Grape Witches",
      "hood": "King West",
      "type": "foodhh",
      "days": [
        "mon",
        "tue",
        "wed",
        "thu",
        "fri"
      ],
      "start": 15,
      "end": 18,
      "detail": "🍔 $12 rotating wine glasses + 20% off snacks weekdays 3–6pm. Natural wine in an Architectural Digest space.",
      "addr": "505 Richmond St W",
      "lat": 43.647147,
      "lng": -79.399584
    },
    {
      "name": "Waterworks — Central Bar",
      "hood": "King West",
      "type": "foodhh",
      "days": [
        "mon",
        "tue",
        "wed",
        "thu",
        "fri",
        "sat",
        "sun"
      ],
      "start": 15,
      "end": 18,
      "detail": "🍔 $6 local beer, $10 cocktails 3–6pm daily.",
      "addr": "505 Richmond St W",
      "lat": 43.647147,
      "lng": -79.399584
    },
    {
      "name": "Jules Bistro",
      "hood": "Queen West",
      "type": "foodhh",
      "days": [
        "tue"
      ],
      "start": 17,
      "end": 22,
      "detail": "🍔 Half-price côte de boeuf Tuesdays — 24oz AAA ribeye with fries & salad for ~$59. Book ahead.",
      "addr": "147 Spadina Ave",
      "lat": 43.648163,
      "lng": -79.395675
    },
    {
      "name": "The Carbon Bar",
      "hood": "Financial",
      "type": "foodhh",
      "days": [
        "mon",
        "tue",
        "wed",
        "thu",
        "fri",
        "sat",
        "sun"
      ],
      "start": 17,
      "end": 20,
      "detail": "🍔 $11 cocktails (Smokin' Manhattan, Tokyo Breeze), BBQ comfort food deals. Sun–Wed 8pm–close, Thu–Sat 9pm–close.",
      "addr": "99 Queen St E",
      "lat": 43.653271,
      "lng": -79.374863
    },
    {
      "name": "Ficoa",
      "hood": "Kensington",
      "type": "foodhh",
      "days": [
        "thu",
        "fri"
      ],
      "start": 20,
      "end": 26,
      "detail": "🍔 Pachanga Hour: each drink order unlocks a free snack — starts with marinated olives, escalates to duck wings and rib-eye bites. Thu–Fri 8pm–close.",
      "addr": "585 College St",
      "lat": 43.655199,
      "lng": -79.413334
    },
    {
      "name": "Ricky + Oliva",
      "hood": "Leslieville",
      "type": "foodhh",
      "days": [
        "tue",
        "wed",
        "thu",
        "fri",
        "sat"
      ],
      "start": 15,
      "end": 17,
      "detail": "🍔 $10 wine glasses, $6 lagers, $12 batched cocktails + food deals Tue–Sat 3–5pm.",
      "addr": "978 Queen St E",
      "lat": 43.661465,
      "lng": -79.339892
    },
    {
      "name": "Ladybug Wine Bar",
      "hood": "Corktown",
      "type": "foodhh",
      "days": [
        "tue"
      ],
      "start": 17,
      "end": 22,
      "detail": "🍔 $30 prix fixe menu Tuesdays. Retail Sunday — sip any bottle at takeaway prices.",
      "addr": "926 Queen St E",
      "lat": 43.660793,
      "lng": -79.341673
    },
    {
      "name": "Henry's",
      "hood": "Queen West",
      "type": "foodhh",
      "days": [
        "tue"
      ],
      "start": 18,
      "end": 22,
      "detail": "🍔 Family-style prix fixe $40pp Tuesdays — roast chicken, kale salad, potato pavé. Wine shop + restaurant.",
      "addr": "600 Queen St W",
      "lat": 43.647197,
      "lng": -79.404627
    },
    {
      "name": "Pai",
      "hood": "Financial",
      "type": "foodhh",
      "days": [
        "mon",
        "tue",
        "wed",
        "thu",
        "fri"
      ],
      "start": 17,
      "end": 18,
      "detail": "🍔 $7 Chang beer, $8 cocktails, $9 bar snacks 5–6pm. Best Thai in the Financial District.",
      "addr": "18 Duncan St",
      "lat": 43.647836,
      "lng": -79.388714
    },
    {
      "name": "The Citizen",
      "hood": "Financial",
      "type": "foodhh",
      "days": [
        "mon",
        "tue",
        "wed",
        "thu",
        "fri"
      ],
      "start": 16,
      "end": 18,
      "detail": "🍔 $6 draft, $7 wine, $9 apps Mon–Fri 4–6pm.",
      "addr": "147 King St W",
      "lat": 43.646773,
      "lng": -79.388931
    },
    {
      "name": "Minami",
      "hood": "Entertainment",
      "type": "foodhh",
      "days": [
        "mon",
        "tue",
        "wed",
        "thu",
        "fri",
        "sat",
        "sun"
      ],
      "start": 14,
      "end": 17,
      "detail": "🍔 Japanese-inspired drinks & mini eats all under $12. 2–5pm daily + late nights.",
      "addr": "225 King St W",
      "lat": 43.646658,
      "lng": -79.388189
    },
    {
      "name": "Chotto Matte",
      "hood": "Financial",
      "type": "foodhh",
      "days": [
        "mon",
        "tue",
        "wed",
        "thu",
        "fri"
      ],
      "start": 16,
      "end": 18,
      "detail": "🍔 2-for-1 all drinks! $5 edamame, $9 salmon tostada, $14 nikkei gyoza. Nikkei cuisine.",
      "addr": "161 Bay St",
      "lat": 43.646924,
      "lng": -79.378657
    },
    {
      "name": "Vinny's",
      "hood": "King West",
      "type": "foodhh",
      "days": [
        "sun",
        "mon",
        "tue",
        "wed",
        "thu"
      ],
      "start": 17,
      "end": 19,
      "detail": "🍔 $2 oysters w/ yuzu mignonette, $12 fried chicken bucket, $10 cocktails Sun–Thu 5–7pm.",
      "addr": "480 King St W",
      "lat": 43.645342,
      "lng": -79.396296
    },
    {
      "name": "CKTL & Co",
      "hood": "Financial",
      "type": "foodhh",
      "days": [
        "mon",
        "tue",
        "wed",
        "thu",
        "fri"
      ],
      "start": 14,
      "end": 17,
      "detail": "🍔 $7 wine, $7 beer + food Mon–Fri 2–5pm.",
      "addr": "77 Adelaide St W",
      "lat": 43.649414,
      "lng": -79.382084
    },
    {
      "name": "La Palma",
      "hood": "Kensington",
      "type": "foodhh",
      "days": [
        "mon",
        "tue",
        "wed",
        "thu",
        "fri"
      ],
      "start": 17,
      "end": 18,
      "detail": "🍔 $8 Aperol spritz, $7 wine, $10 pizza slices 5–6pm weekdays.",
      "addr": "849 Dundas St W",
      "lat": 43.651348,
      "lng": -79.410118
    },
    {
      "name": "The Cottage Cheese",
      "hood": "Kensington",
      "type": "foodhh",
      "days": [
        "mon",
        "tue",
        "wed",
        "thu",
        "fri"
      ],
      "start": 12,
      "end": 16,
      "detail": "🍔 $10–$12 Indian small plates & drink specials weekdays noon–4pm. Local fave comfort food.",
      "addr": "503 College St",
      "lat": 43.655849,
      "lng": -79.40982
    },
    {
      "name": "Bar Raval (Food)",
      "hood": "Kensington",
      "type": "foodhh",
      "days": [
        "mon",
        "tue",
        "wed",
        "thu",
        "fri"
      ],
      "start": 15,
      "end": 18,
      "detail": "🍔 $6 pintxos, Spanish bar snacks & bites 3–6pm weekdays. Best tapas in Toronto.",
      "addr": "505 College St",
      "lat": 43.655877,
      "lng": -79.409924
    },
    {
      "name": "The Drake Hotel",
      "hood": "Queen West",
      "type": "happyhour",
      "days": [
        "mon",
        "tue",
        "wed",
        "thu",
        "fri"
      ],
      "start": 17,
      "end": 19,
      "detail": "$6 drafts, $8 house wine, $10 bar bites. HH Mon–Fri 5–7pm. Spicy sake maki hand roll special.",
      "addr": "1150 Queen St W",
      "lat": 43.643255,
      "lng": -79.424546
    },
    {
      "name": "Dasha",
      "hood": "King West",
      "type": "happyhour",
      "days": [
        "mon",
        "tue",
        "wed",
        "thu",
        "fri"
      ],
      "start": 17,
      "end": 19,
      "detail": "Half-price wine bottles, $16 cocktails. Private karaoke rooms available.",
      "addr": "690 King St W",
      "lat": 43.64874,
      "lng": -79.379877
    },
    {
      "name": "Snakes & Lattes Annex",
      "hood": "Annex",
      "type": "trivia",
      "days": [
        "tue"
      ],
      "start": 19,
      "end": 21,
      "detail": "General trivia — 6 rounds, free popcorn, $50 gift card for 1st. $5 pints",
      "addr": "600 Bloor St W",
      "lat": 43.664817,
      "lng": -79.41321
    },
    {
      "name": "The Handlebar",
      "hood": "Kensington",
      "type": "trivia",
      "days": [
        "tue"
      ],
      "start": 19,
      "end": 21,
      "detail": "Pub trivia by Quiz Me Quick. Free to play, prizes for top 3",
      "addr": "159 Augusta Ave",
      "lat": 43.652823,
      "lng": -79.401185
    },
    {
      "name": "The Piston",
      "hood": "Bloor West",
      "type": "trivia",
      "days": [
        "wed"
      ],
      "start": 20,
      "end": 22,
      "detail": "Wednesday trivia, bar prizes. Teams up to 6. Free entry",
      "addr": "937 Bloor St W",
      "lat": 43.661417,
      "lng": -79.427613
    },
    {
      "name": "Habits Gastropub",
      "hood": "Kensington",
      "type": "trivia",
      "days": [
        "wed"
      ],
      "start": 20,
      "end": 22,
      "detail": "Weekly pub quiz. $2 off drinks during trivia",
      "addr": "148 College St",
      "lat": 43.659223,
      "lng": -79.39275
    },
    {
      "name": "Madisons",
      "hood": "Annex",
      "type": "trivia",
      "days": [
        "mon"
      ],
      "start": 19,
      "end": 21,
      "detail": "Monday Night Trivia — Name That Tune rounds, prizes. Free",
      "addr": "14 Baldwin St",
      "lat": 43.656283,
      "lng": -79.392963
    },
    {
      "name": "Harbord House",
      "hood": "Annex",
      "type": "trivia",
      "days": [
        "mon"
      ],
      "start": 19,
      "end": 21,
      "detail": "Monday trivia 7–9:30pm. No fee. Get there early",
      "addr": "2 Harbord St",
      "lat": 43.661464,
      "lng": -79.410058
    },
    {
      "name": "Pegasus On Church",
      "hood": "Church",
      "type": "trivia",
      "days": [
        "tue",
        "wed"
      ],
      "start": 20,
      "end": 22,
      "detail": "LGBTQ+ trivia nights Tue & Wed — themed rounds, bingo too",
      "addr": "489 Church St",
      "lat": 43.665117,
      "lng": -79.380532
    },
    {
      "name": "The Ossington",
      "hood": "Ossington",
      "type": "trivia",
      "days": [
        "sun"
      ],
      "start": 19,
      "end": 21,
      "detail": "Brass Facts trivia Sundays — karaoke follows at 10pm",
      "addr": "61 Ossington Ave",
      "lat": 43.64558,
      "lng": -79.419168
    },
    {
      "name": "The 3030",
      "hood": "Bloor West",
      "type": "trivia",
      "days": [
        "tue"
      ],
      "start": 19,
      "end": 21,
      "detail": "Pub trivia Tuesdays. Cash prizes. $5 entry per person",
      "addr": "3030 Dundas St W",
      "lat": 43.665714,
      "lng": -79.470134
    },
    {
      "name": "Kramer's Bar & Grill",
      "hood": "Annex",
      "type": "trivia",
      "days": [
        "tue",
        "wed"
      ],
      "start": 20,
      "end": 22,
      "detail": "Trivia Tue & Wed — so popular they added a second night",
      "addr": "177 Harbord St",
      "lat": 43.661719,
      "lng": -79.407971
    },
    {
      "name": "Left Field Brewery (Trivia)",
      "hood": "Leslieville",
      "type": "trivia",
      "days": [
        "wed"
      ],
      "start": 19,
      "end": 21,
      "detail": "Brass Facts Trivia — geography, music, sports, history",
      "addr": "36 Wagstaff Dr",
      "lat": 43.67369,
      "lng": -79.330479
    },
    {
      "name": "The Meltdown",
      "hood": "Kensington",
      "type": "openmic",
      "days": [
        "mon"
      ],
      "start": 20,
      "end": 23,
      "detail": "Comedy open mic every Monday. Show up, go up. 5-min spots. Happy hour",
      "addr": "686 College St",
      "lat": 43.655361,
      "lng": -79.417542
    },
    {
      "name": "The Communist's Daughter",
      "hood": "Ossington",
      "type": "openmic",
      "days": [
        "mon"
      ],
      "start": 20,
      "end": 23,
      "detail": "Open mic — free entry, sign up from 8pm. Rotating acoustic sets",
      "addr": "1149 Dundas St W",
      "lat": 43.649239,
      "lng": -79.421082
    },
    {
      "name": "The Dakota Tavern",
      "hood": "Kensington",
      "type": "openmic",
      "days": [
        "mon"
      ],
      "start": 21,
      "end": 24,
      "detail": "Bluegrass open mic every Monday. No cover. Bring your instrument",
      "addr": "249 Ossington Ave",
      "lat": 43.649753,
      "lng": -79.420728
    },
    {
      "name": "The Cameron House",
      "hood": "Queen West",
      "type": "openmic",
      "days": [
        "mon",
        "tue"
      ],
      "start": 21,
      "end": 24,
      "detail": "Nightly live music & open mic. No cover. Legendary Toronto venue",
      "addr": "408 Queen St W",
      "lat": 43.648621,
      "lng": -79.397584
    },
    {
      "name": "The Garrison",
      "hood": "Kensington",
      "type": "openmic",
      "days": [
        "tue"
      ],
      "start": 20,
      "end": 23,
      "detail": "Open mic — all genres welcome. Free entry. 10 slots per night",
      "addr": "1197 Dundas St W",
      "lat": 43.649153,
      "lng": -79.422336
    },
    {
      "name": "The Bovine Sex Club",
      "hood": "Queen West",
      "type": "openmic",
      "days": [
        "wed"
      ],
      "start": 21,
      "end": 24,
      "detail": "Open mic Wed — rock/punk/experimental. $5 cover",
      "addr": "542 Queen St W",
      "lat": 43.64757,
      "lng": -79.402711
    },
    {
      "name": "The Burdock",
      "hood": "Bloor West",
      "type": "openmic",
      "days": [
        "sun"
      ],
      "start": 19,
      "end": 22,
      "detail": "Sunday songwriter circle. Intimate acoustic sets. Free",
      "addr": "1184 Bloor St W",
      "lat": 43.659508,
      "lng": -79.437826
    },
    {
      "name": "The Corner Comedy Club",
      "hood": "Financial",
      "type": "openmic",
      "days": [
        "mon",
        "thu"
      ],
      "start": 20,
      "end": 23,
      "detail": "Open mic nights — max 50 guests. Back alley entrance",
      "addr": "381 King St W",
      "lat": 43.64573,
      "lng": -79.393333
    },
    {
      "name": "Comedy Bar",
      "hood": "Bloor West",
      "type": "comedy",
      "days": [
        "thu",
        "fri",
        "sat"
      ],
      "start": 20,
      "end": 23,
      "detail": "150+ shows/month — stand-up, sketch, alternative. $15–20",
      "addr": "945 Bloor St W",
      "lat": 43.661362,
      "lng": -79.427872
    },
    {
      "name": "Yuk Yuk's",
      "hood": "Financial",
      "type": "comedy",
      "days": [
        "wed",
        "thu",
        "fri",
        "sat"
      ],
      "start": 20,
      "end": 23,
      "detail": "Canada's iconic comedy club since 1976. Headline acts + showcases",
      "addr": "224 Richmond St W",
      "lat": 43.649852,
      "lng": -79.387994
    },
    {
      "name": "The Monarch Tavern",
      "hood": "Kensington",
      "type": "comedy",
      "days": [
        "thu"
      ],
      "start": 20,
      "end": 22,
      "detail": "Comedy night every Thursday. $10 includes a drink ticket",
      "addr": "12 Clinton St",
      "lat": 43.654057,
      "lng": -79.413578
    },
    {
      "name": "The Rivoli",
      "hood": "Queen West",
      "type": "comedy",
      "days": [
        "wed"
      ],
      "start": 20,
      "end": 22,
      "detail": "Stand-up showcase Wednesdays. $8 cover. Rotating local comics",
      "addr": "334 Queen St W",
      "lat": 43.649408,
      "lng": -79.394943
    },
    {
      "name": "Absolute Comedy",
      "hood": "Yorkville",
      "type": "comedy",
      "days": [
        "wed",
        "thu",
        "fri",
        "sat"
      ],
      "start": 20,
      "end": 23,
      "detail": "Canadian & American comedians. Classic uptown comedy bar",
      "addr": "2335 Yonge St",
      "lat": 43.708633,
      "lng": -79.398545
    },
    {
      "name": "Bad Dog Theatre",
      "hood": "Bloor West",
      "type": "comedy",
      "days": [
        "fri",
        "sat"
      ],
      "start": 20,
      "end": 22,
      "detail": "Improv since 1982. Colin Mochrie, Mike Myers alumni",
      "addr": "875 Bloor St W",
      "lat": 43.661993,
      "lng": -79.425041
    },
    {
      "name": "Bar+ Karaoke",
      "hood": "Financial",
      "type": "karaoke",
      "days": [
        "mon",
        "tue",
        "wed",
        "thu",
        "fri",
        "sat",
        "sun"
      ],
      "start": 18,
      "end": 26,
      "detail": "Premier private karaoke rooms — English, Korean, Chinese, Japanese",
      "addr": "360 Yonge St",
      "lat": 43.658295,
      "lng": -79.381975
    },
    {
      "name": "Bar Neon",
      "hood": "Kensington",
      "type": "karaoke",
      "days": [
        "thu",
        "fri",
        "sat"
      ],
      "start": 21,
      "end": 26,
      "detail": "Private karaoke rooms. Walk-ins welcome. $15/person/hr",
      "addr": "230 Augusta Ave",
      "lat": 43.655104,
      "lng": -79.402401
    },
    {
      "name": "Karaoke Lounge 99",
      "hood": "Chinatown",
      "type": "karaoke",
      "days": [
        "wed",
        "thu",
        "fri",
        "sat",
        "sun"
      ],
      "start": 19,
      "end": 26,
      "detail": "Private rooms, 50,000+ songs. $12–18/person/hr",
      "addr": "99 Spadina Ave",
      "lat": 43.646172,
      "lng": -79.394797
    },
    {
      "name": "The Rec Room (karaoke)",
      "hood": "Financial",
      "type": "karaoke",
      "days": [
        "fri",
        "sat"
      ],
      "start": 20,
      "end": 26,
      "detail": "Open karaoke stage Fri & Sat. Free entry. Slots fill fast",
      "addr": "255 Bremner Blvd",
      "lat": 43.640647,
      "lng": -79.385956
    },
    {
      "name": "Penny's Bar",
      "hood": "Bloor West",
      "type": "karaoke",
      "days": [
        "wed",
        "thu"
      ],
      "start": 21,
      "end": 26,
      "detail": "Local fave karaoke Wed & Thu. Free popcorn, $5 sliders",
      "addr": "1306 Bloor St W",
      "lat": 43.658536,
      "lng": -79.442462
    },
    {
      "name": "Church St Garage",
      "hood": "Church",
      "type": "karaoke",
      "days": [
        "wed",
        "thu",
        "fri",
        "sat"
      ],
      "start": 22,
      "end": 26,
      "detail": "Host Steve-Oh. Church Village karaoke. Wed–Sat 10pm–2am",
      "addr": "477 Church St",
      "lat": 43.664799,
      "lng": -79.380445
    },
    {
      "name": "Echo Karaoke & Lounge",
      "hood": "Chinatown",
      "type": "karaoke",
      "days": [
        "mon",
        "tue",
        "wed",
        "thu",
        "fri",
        "sat",
        "sun"
      ],
      "start": 18,
      "end": 26,
      "detail": "Top-rated karaoke. Private rooms, multi-language songbook",
      "addr": "256 Spadina Ave",
      "lat": 43.651713,
      "lng": -79.39782
    },
    {
      "name": "B-Boss KTV",
      "hood": "Chinatown",
      "type": "karaoke",
      "days": [
        "mon",
        "tue",
        "wed",
        "thu",
        "fri",
        "sat",
        "sun"
      ],
      "start": 18,
      "end": 26,
      "detail": "Sleek private rooms, Asian & English songs",
      "addr": "280 Spadina Ave",
      "lat": 43.652647,
      "lng": -79.398431
    },
    {
      "name": "Twister Karaoke",
      "hood": "Annex",
      "type": "karaoke",
      "days": [
        "mon",
        "tue",
        "wed",
        "thu",
        "fri",
        "sat",
        "sun"
      ],
      "start": 18,
      "end": 26,
      "detail": "Koreatown staple — 300,000+ songs",
      "addr": "691 Bloor St W",
      "lat": 43.663643,
      "lng": -79.416962
    },
    {
      "name": "The Gladstone House",
      "hood": "Queen West",
      "type": "drag",
      "days": [
        "wed",
        "sat"
      ],
      "start": 20,
      "end": 23,
      "detail": "Drag bingo Wed ($15, sells out). Drag shows Sat",
      "addr": "1214 Queen St W",
      "lat": 43.642768,
      "lng": -79.426925
    },
    {
      "name": "Crews & Tangos",
      "hood": "Church",
      "type": "drag",
      "days": [
        "thu",
        "fri",
        "sat",
        "sun"
      ],
      "start": 21,
      "end": 26,
      "detail": "Church Village drag performances, dance floor, multiple bars",
      "addr": "508 Church St",
      "lat": 43.664252,
      "lng": -79.380473
    },
    {
      "name": "Pegasus On Church",
      "hood": "Church",
      "type": "drag",
      "days": [
        "fri",
        "sat"
      ],
      "start": 21,
      "end": 24,
      "detail": "Drag shows & LGBTQ+ events on weekends",
      "addr": "489 Church St",
      "lat": 43.665117,
      "lng": -79.380532
    },
    {
      "name": "The Drake Hotel",
      "hood": "Queen West",
      "type": "dj",
      "days": [
        "fri",
        "sat"
      ],
      "start": 22,
      "end": 26,
      "detail": "Resident DJ sets in the Underground. No cover before 11pm",
      "addr": "1150 Queen St W",
      "lat": 43.643255,
      "lng": -79.424546
    },
    {
      "name": "Baro",
      "hood": "King West",
      "type": "dj",
      "days": [
        "thu",
        "fri",
        "sat"
      ],
      "start": 22,
      "end": 26,
      "detail": "DJ nights Thu–Sat. Latin & Afrobeats. $10 cover after 10pm",
      "addr": "485 King St W",
      "lat": 43.644891,
      "lng": -79.396977
    },
    {
      "name": "Sneaky Dee's",
      "hood": "Kensington",
      "type": "dj",
      "days": [
        "fri",
        "sat"
      ],
      "start": 22,
      "end": 26,
      "detail": "Free DJ nights upstairs on weekends. Cheap drinks",
      "addr": "431 College St",
      "lat": 43.656246,
      "lng": -79.407432
    },
    {
      "name": "The Ballroom",
      "hood": "Financial",
      "type": "bingo",
      "days": [
        "thu"
      ],
      "start": 20,
      "end": 22,
      "detail": "Music bingo Thursdays. Free to play. Prizes every round",
      "addr": "145 John St",
      "lat": 43.649046,
      "lng": -79.390625
    },
    {
      "name": "Jazz Bistro",
      "hood": "Financial",
      "type": "jazz",
      "days": [
        "tue",
        "wed",
        "thu",
        "fri",
        "sat"
      ],
      "start": 19,
      "end": 23,
      "detail": "Premier Toronto jazz venue — live jazz nightly from 7pm",
      "addr": "251 Victoria St",
      "lat": 43.655813,
      "lng": -79.379061
    },
    {
      "name": "The Rex Hotel Jazz Bar",
      "hood": "Financial",
      "type": "jazz",
      "days": [
        "mon",
        "tue",
        "wed",
        "thu",
        "fri",
        "sat",
        "sun"
      ],
      "start": 18,
      "end": 24,
      "detail": "Live jazz & blues every night. Two shows daily. No cover",
      "addr": "194 Queen St W",
      "lat": 43.650536,
      "lng": -79.38847
    },
    {
      "name": "Emmet Ray",
      "hood": "Annex",
      "type": "jazz",
      "days": [
        "mon",
        "tue",
        "wed",
        "thu",
        "fri",
        "sat",
        "sun"
      ],
      "start": 17,
      "end": 23,
      "detail": "Jazz bar with rotating performers. Whisky specialists",
      "addr": "924 College St",
      "lat": 43.653874,
      "lng": -79.425699
    },
    {
      "name": "The Horseshoe Tavern",
      "hood": "Queen West",
      "type": "livemusic",
      "days": [
        "mon",
        "tue",
        "wed",
        "thu",
        "fri",
        "sat",
        "sun"
      ],
      "start": 20,
      "end": 24,
      "detail": "Toronto's most iconic live music venue since 1947",
      "addr": "370 Queen St W",
      "lat": 43.649049,
      "lng": -79.395904
    },
    {
      "name": "Lee's Palace",
      "hood": "Annex",
      "type": "livemusic",
      "days": [
        "thu",
        "fri",
        "sat"
      ],
      "start": 20,
      "end": 24,
      "detail": "Legendary mid-size venue — indie, rock, metal",
      "addr": "529 Bloor St W",
      "lat": 43.6653,
      "lng": -79.409455
    },
    {
      "name": "Sweaty Betty's",
      "hood": "Queen West",
      "type": "livemusic",
      "days": [
        "wed",
        "thu",
        "fri",
        "sat"
      ],
      "start": 21,
      "end": 26,
      "detail": "Live bands most nights. No cover early. Classic dive bar",
      "addr": "13 Ossington Ave",
      "lat": 43.644598,
      "lng": -79.418778
    }
  ],
  "total": 144
}